site_name,ff_funded,has_changing_rooms,Travel from Tooting,Travel from Clapham South,Travel from Streatham,Travel from Tulse Hill,Travel from London Bridge,Average Travel Time,Rounded Travel Time,Travel from Tooting (mins),Travel from Clapham South (mins),Travel from Streatham (mins),Travel from Tulse Hill (mins),Travel from London Bridge (mins),id,lat,lng,has_parking,is_publicly_bookable,number_grass_pitches,number_artificial_pitches,number_floodlit_pitches,Link,JC Shortlist,AI Shortlist,AH Shortlist,TR Shortlist,Exclude,Status,Notes,Extra notes,Who,rank,Image
LA RETRAITE ROMAN CATHOLIC GIRLS SCHOOL,FALSE,TRUE,16 mins,8 mins,22 mins,24 mins,29 mins,17.50,20.00,16.00,8.00,22.00,24.00,29.00,1201158,51.447913,-0.14478,TRUE,TRUE,0,1,1,https://pitchfinder.org.uk/map/site/1201158,,,,,Too Small,Too Small,50 x 40m,,,1,
KENNINGTON PARK HOCKEY PITCH,FALSE,TRUE,20 mins,14 mins,35 mins,26 mins,18 mins,23.75,20.00,20.00,14.00,35.00,26.00,18.00,1103243,51.481651,-0.109154,FALSE,TRUE,0,1,1,https://pitchfinder.org.uk/map/site/1103243,,Y,Y,Y,Under Construction,Under Construction,90x50 Looks like it's sand based (may be a second),Lambeth website says its out of service pending renovations. Long term plans more than this season. Unsure whether it's 4G. Emailed 20/07.,Ridings,2,
TOOTING COMMON,TRUE,TRUE,14 mins,15 mins,13 mins,35 mins,34 mins,19.25,20.00,14.00,15.00,13.00,35.00,34.00,6015435,51.433359,-0.149578,TRUE,TRUE,12,0,0,https://pitchfinder.org.uk/map/site/6015435,,,,,Exclude - Park,Unsuitable (Park),,,,5,
CLAPHAM COMMON,FALSE,TRUE,19 mins,4 mins,24 mins,30 mins,28 mins,19.25,20.00,19.00,4.00,24.00,30.00,28.00,1202428,51.457446,-0.144207,FALSE,TRUE,13,0,0,https://pitchfinder.org.uk/map/site/1202428,,,,,Exclude - Park,Unsuitable (Park),,,,6,
BROCKWELL PARK,TRUE,TRUE,34 mins,22 mins,22 mins,13 mins,40 mins,22.75,20.00,34.00,22.00,22.00,13.00,40.00,1202425,51.451725,-0.105152,FALSE,FALSE,0,0,0,https://pitchfinder.org.uk/map/site/1202425,,,,,Exclude - Park,Unsuitable (Park),,,,7,
AFC WIMBLEDON (PLOUGH LANE),FALSE,TRUE,13 mins,20 mins,37 mins,43 mins,41 mins,28.25,30.00,13.00,20.00,37.00,43.00,41.00,30009052,51.430975,-0.185296,TRUE,FALSE,1,0,1,https://pitchfinder.org.uk/map/site/30009052,,,,,Exclude,Too Expensive,Too expensive. It's a stadium,,,9,
ARCHBISHOPS PARK,FALSE,TRUE,36 mins,28 mins,43 mins,39 mins,20 mins,36.50,40.00,36.00,28.00,43.00,39.00,20.00,1043105,51.497867,-0.116084,FALSE,TRUE,0,1,1,https://pitchfinder.org.uk/map/site/1043105,,,,,,Too Small (Training option),80x40m ,Small. Might be a training option.,Jack,38,
BATTERSEA IRONSIDES SPORTS CLUB,TRUE,TRUE,22 mins,21 mins,33 mins,47 mins,40 mins,30.75,30.00,22.00,21.00,33.00,47.00,40.00,6015418,51.443213,-0.1806,TRUE,TRUE,1,1,1,https://pitchfinder.org.uk/map/site/6015418,,,,,Exclude - Too small ,Too Small (Training option),60m x 37m but 4G. Training only.,,,10,
LARKHALL PARK,TRUE,TRUE,24 mins,18 mins,38 mins,32 mins,27 mins,28.00,30.00,24.00,18.00,38.00,32.00,27.00,1202421,51.473087,-0.131471,FALSE,TRUE,1,1,1,https://pitchfinder.org.uk/map/site/1202421,,,,,Exclude,Out of Service,too small,Also apparently out of service,,12,
KINGSDALE FOUNDATION SCHOOL,FALSE,TRUE,38 mins,32 mins,33 mins,26 mins,50 mins,32.25,30.00,38.00,32.00,33.00,26.00,50.00,1201371,51.432231,-0.084978,TRUE,TRUE,1,1,1,https://pitchfinder.org.uk/map/site/1201371,,,,,Exclude,Too Small (Training option),50x35m sand. Too small.,,,15,
DULWICH COLLEGE SPORTS CLUB,FALSE,TRUE,39 mins,32 mins,22 mins,22 mins,42 mins,28.75,30.00,39.00,32.00,22.00,22.00,42.00,1008225,51.44028,-0.085044,TRUE,TRUE,3,2,2,https://pitchfinder.org.uk/map/site/1008225,,Y,Y,Y,,Fully Booked,"90x55m, sand",Emailed Gary Shapre 25/07. Advised very busy. Fully booked September-April but some availabilty August. £100/hr inc VAT.,Ridings,16,
STREATHAM & CLAPHAM HIGH SCHOOL,FALSE,TRUE,25 mins,25 mins,11 mins,26 mins,40 mins,21.75,20.00,25.00,25.00,11.00,26.00,40.00,1200530,51.435282,-0.138142,TRUE,TRUE,0,1,1,https://pitchfinder.org.uk/map/site/1200530,,Y,Y,Y,,Available (Games),"90x50m sand-based. On Tooting Common. Questions about post match facilities (pub and changing facilities). No floodlights and closes at 9pm, so only for game days. £116.80/hr.",Availability on match days. ,Hoppo,3,https://sh-prod-storage.s3.amazonaws.com/uploads/image/image/24040/big_IMG_4450.JPG
JAGS SPORTS CLUB,FALSE,TRUE,41 mins,34 mins,20 mins,27 mins,26 mins,30.50,30.00,41.00,34.00,20.00,27.00,26.00,1008246,51.455687,-0.087038,TRUE,TRUE,0,1,1,https://pitchfinder.org.uk/map/site/1008246,,Y,Y,Y,Busy,Fully Booked,Full sized sand-based,Emailed Dean Allard 25/07. Sports Development Manager. Not available.,Ridings,18,
CARSHALTON ATHLETIC FC,TRUE,TRUE,33 mins,31 mins,27 mins,40 mins,57 mins,32.75,30.00,33.00,31.00,27.00,40.00,57.00,6011261,51.369296,-0.171875,TRUE,TRUE,0,1,0,https://pitchfinder.org.uk/map/site/6011261,,,,,Exclude,Too Expensive,Top dollar.,,,19,
RICARDS LODGE HIGH SCHOOL,FALSE,TRUE,25 mins,32 mins,33 mins,48 mins,54 mins,34.50,30.00,25.00,32.00,33.00,48.00,54.00,1009177,51.428679,-0.205276,TRUE,TRUE,1,1,0,https://pitchfinder.org.uk/map/site/1009177,,,,,Exclude,Decided Against,95x60 sand. Difficult to get to from anywhere not SW london. No boozers nearby.,,,20,
CHARTER SCHOOL SPORTS CENTRE,TRUE,TRUE,41 mins,35 mins,20 mins,32 mins,26 mins,32.00,30.00,41.00,35.00,20.00,32.00,26.00,1002255,51.456411,-0.089292,TRUE,TRUE,4,1,1,https://pitchfinder.org.uk/map/site/1002255,,Y,"Y (could not see availability on Saturdays on website, but might be the shit website)",Y,,Too Small,3G Pitch,Visited the charter school. Only has a single astro which is too small.,Ridings,21,
GARRATT PARK,FALSE,TRUE,11 mins,20 mins,34 mins,51 mins,42 mins,29.00,30.00,11.00,20.00,34.00,51.00,42.00,1202082,51.435438,-0.188442,FALSE,TRUE,1,0,0,https://pitchfinder.org.uk/map/site/1202082,,,,,Exclude - Park,Unsuitable (Park),,,,24,
THE GRIFFIN SPORTS GROUND,TRUE,TRUE,39 mins,36 mins,20 mins,26 mins,26 mins,30.25,30.00,39.00,36.00,20.00,26.00,26.00,1200547,51.451943,-0.08855,TRUE,FALSE,0,0,0,https://pitchfinder.org.uk/map/site/1200547,,,,Y,,Fully Booked,Not council ran.,Grass pitch,Ridings V2,25,
DUNDONALD RECREATION GROUND,TRUE,TRUE,22 mins,28 mins,29 mins,43 mins,46 mins,30.50,30.00,22.00,28.00,29.00,43.00,46.00,6016948,51.415573,-0.208763,TRUE,TRUE,6,0,0,https://pitchfinder.org.uk/map/site/6016948,,,,,,Unsuitable (Park),,,,26,
WANDSWORTH COMMON,TRUE,TRUE,22 mins,19 mins,33 mins,50 mins,45 mins,31.00,30.00,22.00,19.00,33.00,50.00,45.00,1202482,51.452898,-0.170687,FALSE,TRUE,14,0,0,https://pitchfinder.org.uk/map/site/1202482,,,,,,Unsuitable (Park),,,,27,
ST MARKS ACADEMY,TRUE,TRUE,26 mins,22 mins,18 mins,31 mins,54 mins,24.25,20.00,26.00,22.00,18.00,31.00,54.00,1009073,51.408117,-0.152568,TRUE,TRUE,1,1,1,https://pitchfinder.org.uk/map/site/1009073,,Y,Y,Y,,Enquiring,11-a-side sand based 2G pitch. Looks slippery. Potentially grass option too. £75/hr for sand.,,Hoppo,4,https://www.stmarksacademy.com/_site/data/files/images/content__images/17DAF1582C4942EA2011A455C6297960.jpg
TRINITY FIELD,TRUE,TRUE,17 mins,14 mins,24 mins,40 mins,39 mins,23.75,20.00,17.00,14.00,24.00,40.00,39.00,6015656,51.441648,-0.170477,TRUE,TRUE,3,0,0,https://pitchfinder.org.uk/map/site/6015656,,,,Y,,Enquiring,"Grass pitches. Private, not council.",Called 0208 935 5049 no answer. Emailed 28/07.,Jack,8,https://www.openplay.co.uk/uploads/1842_55784f46034c4-500x_.jpg
THE SPENCER CLUB,FALSE,TRUE,23 mins,17 mins,30 mins,53 mins,47 mins,30.75,30.00,23.00,17.00,30.00,53.00,47.00,1036119,51.441404,-0.178082,FALSE,TRUE,0,1,1,https://pitchfinder.org.uk/map/site/1036119,,,,,,Spencer,Spencer ,,Jack,11,
SELHURST SPORTS ARENA,TRUE,TRUE,28 mins,26 mins,34 mins,36 mins,30 mins,31.00,30.00,28.00,26.00,34.00,36.00,30.00,1038752,51.391785,-0.089704,TRUE,TRUE,0,1,1,https://pitchfinder.org.uk/map/site/1038752,,Y,Y,Y,,Enquiring,3G 90X45 with floodlights. Very close to Selhurst station. £85/hour.,Website shows promising availabilty. Emailed 28/07.,Alice,13,https://www.selhurstsportsarena.org/images/3G-football-pitch-hire-south-london.jpg
MORDEN RECREATION GROUND,TRUE,TRUE,25 mins,32 mins,47 mins,58 mins,49 mins,40.50,40.00,25.00,32.00,47.00,58.00,49.00,6017062,51.392728,-0.194837,FALSE,TRUE,3,2,2,https://pitchfinder.org.uk/map/site/6017062,,Y - women only,,Y,,Too Small,Not haydons road.,Astro was too small but they had grass pitches,,32,
ASPIRE CENTRE (SOUTHFIELDS ACADEMY),TRUE,TRUE,25 mins,35 mins,50 mins,48 mins,44 mins,39.50,40.00,25.00,35.00,50.00,48.00,44.00,1003872,51.444512,-0.197548,TRUE,TRUE,0,1,1,https://pitchfinder.org.uk/map/site/1003872,,,,Y,Exclude - busy,Fully Booked,"100x60, 3G £110",Enquired. Fully booked. ,,33,
TOOTING AND MITCHAM COMMUNITY SPORTS CLUB,TRUE,TRUE,28 mins,29 mins,41 mins,58 mins,48 mins,39.00,40.00,28.00,29.00,41.00,58.00,48.00,1008368,51.393646,-0.171869,TRUE,TRUE,1,2,3,https://pitchfinder.org.uk/map/site/1008368,,,,,Exclude,Knobs,Hub,,,34,
RAYNES PARK VALE FC,TRUE,TRUE,35 mins,42 mins,35 mins,53 mins,45 mins,41.25,40.00,35.00,42.00,35.00,53.00,45.00,30006772,51.403307,-0.227056,TRUE,TRUE,1,0,1,https://pitchfinder.org.uk/map/site/30006772,,,,,,Unsuitable (Park),,,,36,
CRYSTAL PALACE FC (SELHURST PARK),FALSE,TRUE,35 mins,59 mins,33 mins,45 mins,30 mins,43.00,40.00,35.00,59.00,33.00,45.00,30.00,30003439,51.397894,-0.085924,TRUE,FALSE,1,0,1,https://pitchfinder.org.uk/map/site/30003439,,,,,,Too Expensive,,,,37,
BURGESS PARK,TRUE,TRUE,40 mins,37 mins,47 mins,47 mins,25 mins,42.75,40.00,40.00,37.00,47.00,47.00,25.00,20001296,51.484272,-0.0812,FALSE,TRUE,0,1,1,https://pitchfinder.org.uk/map/site/20001296,,,,Y,Under Construction,Under Construction,,03330050403 no answer. Emailed 25/07. Confirmed will be 3G. No dates yet.,Ridings,41,
MILLWALL FC (THE DEN),FALSE,TRUE,43 mins,37 mins,36 mins,44 mins,19 mins,40.00,40.00,43.00,37.00,36.00,44.00,19.00,30008176,51.485998,-0.051153,TRUE,FALSE,1,0,1,https://pitchfinder.org.uk/map/site/30008176,,,,,,Too Expensive,,,,43,
ASHCROFT TECHNOLOGY ACADEMY SPORTS FIELD,FALSE,TRUE,28 mins,20 mins,33 mins,47 mins,40 mins,32.00,30.00,28.00,20.00,33.00,47.00,40.00,1039264,51.443141,-0.180503,TRUE,TRUE,2,1,1,https://pitchfinder.org.uk/map/site/1039264,,Y,Is this not the astro at Spencer?,Y,,Enquiring,90 x 50m. Sand based. Behind spencer club. £100/hr,,Jack,14,https://www.atacademy.org.uk/_site/data/files/images/page%20header%20banners/letting%20hiring/5A648B7CBE1C14D78E05413A503499A8.jpg
HARRIS ACADEMY MORDEN,FALSE,TRUE,32 mins,34 mins,49 mins,1 hour 4 mins,52 mins,44.75,40.00,32.00,34.00,49.00,64.00,52.00,1009173,51.391971,-0.179331,TRUE,TRUE,0,1,0,https://pitchfinder.org.uk/map/site/1009173,,,,,,,,,,46,
ALLEYN'S SCHOOL,FALSE,TRUE,41 mins,35 mins,24 mins,28 mins,30 mins,32.00,30.00,41.00,35.00,24.00,28.00,30.00,1201642,51.454781,-0.082019,FALSE,FALSE,8,2,1,https://pitchfinder.org.uk/map/site/1201642,,Y,Y,Y,,Available (Both),"90 x 45m. Good astro, not 3G but not the 2G sand ones. Flood lights are a potential issue (14 * 3M high in the evenings). Grass pitches are available. No booze allowed on site. Close to Peckham Village for socials. £90/hr.",Do have availability. ,Ridings,17,https://i.imgur.com/roYdCNP.png
AFC CROYDON ATHLETIC,TRUE,TRUE,46 mins,35 mins,32 mins,47 mins,59 mins,40.00,40.00,46.00,35.00,32.00,47.00,59.00,6019401,51.396746,-0.125058,TRUE,TRUE,4,0,1,https://pitchfinder.org.uk/map/site/6019401,,,,,,,,,,48,
DULWICH HEALTH CLUB,TRUE,TRUE,48 mins,40 mins,45 mins,34 mins,24 mins,41.75,40.00,48.00,40.00,45.00,34.00,24.00,1000795,51.461895,-0.083693,TRUE,TRUE,1,1,2,https://pitchfinder.org.uk/map/site/1000795,,Y,Y,Y,,Unsuitable.,,Dulwhich Hamlets Ground.,Ridings,49,
ABBEY RECREATION GROUND,FALSE,TRUE,11 mins,17 mins,29 mins,46 mins,35 mins,25.75,30.00,11.00,17.00,29.00,46.00,35.00,6016955,51.411905,-0.194138,TRUE,TRUE,4,0,0,https://pitchfinder.org.uk/map/site/6016955,,,,Y,,Enquiring,Grass pitch run by Merton Council. May be too close to the park to be suitable.,Emailed 28/07.,Jack,22,
HSBC SPORTS & SOCIAL CLUB,FALSE,TRUE,53 mins,45 mins,42 mins,39 mins,30 mins,44.75,40.00,53.00,45.00,42.00,39.00,30.00,1019109,51.416527,-0.036995,TRUE,FALSE,9,1,1,https://pitchfinder.org.uk/map/site/1019109,,,,,,,,,,50,
RUTLISH SCHOOL,FALSE,TRUE,28 mins,33 mins,31 mins,48 mins,49 mins,35.00,40.00,28.00,33.00,31.00,48.00,49.00,1009905,51.40832,-0.207853,TRUE,TRUE,1,0,0,https://pitchfinder.org.uk/map/site/1009905,,,,,,,,,,51,
OLD RUTLISHIANS ASSOCIATION,TRUE,TRUE,20 mins,27 mins,38 mins,56 mins,44 mins,35.25,40.00,20.00,27.00,38.00,56.00,44.00,30006420,51.407991,-0.199272,TRUE,TRUE,1,0,0,https://pitchfinder.org.uk/map/site/30006420,,,,,,,,,,52,
MITCHAM SPORTS GROUND,FALSE,FALSE,23 mins,35 mins,35 mins,50 mins,55 mins,35.75,40.00,23.00,35.00,35.00,50.00,55.00,6016882,51.401366,-0.161775,TRUE,TRUE,2,0,0,https://pitchfinder.org.uk/map/site/6016882,,,,,,,,,,53,
THE EDWARD ALLEYN CLUB,FALSE,TRUE,46 mins,34 mins,35 mins,29 mins,35 mins,36.00,40.00,46.00,34.00,35.00,29.00,35.00,30005541,51.449046,-0.093744,TRUE,FALSE,6,0,0,https://pitchfinder.org.uk/map/site/30005541,,,,,,Unavailable,,Ridings spoke in person.,,54,
JOSEPH HOOD RECREATION GROUND,FALSE,TRUE,27 mins,34 mins,33 mins,50 mins,48 mins,36.00,40.00,27.00,34.00,33.00,50.00,48.00,1202460,51.403752,-0.218312,TRUE,TRUE,6,0,0,https://pitchfinder.org.uk/map/site/1202460,,,,,,,,,,55,
HONOURABLE ARTILLERY COMPANY,FALSE,TRUE,31 mins,25 mins,46 mins,43 mins,14 mins,36.25,40.00,31.00,25.00,46.00,43.00,14.00,1202156,51.523179,-0.087522,FALSE,FALSE,1,0,0,https://pitchfinder.org.uk/map/site/1202156,,,,,,,,,,56,
LONDON PREP DULWICH (MARY DATCHELOR PLAYING FIELDS),FALSE,TRUE,42 mins,39 mins,32 mins,34 mins,51 mins,36.75,40.00,42.00,39.00,32.00,34.00,51.00,6020721,51.436073,-0.083465,TRUE,TRUE,2,0,0,https://pitchfinder.org.uk/map/site/6020721,,,,,,,,,,57,
ALEXANDRA RECREATION GROUND,TRUE,FALSE,43 mins,37 mins,35 mins,32 mins,35 mins,36.75,40.00,43.00,37.00,35.00,32.00,35.00,6002374,51.421227,-0.049724,FALSE,TRUE,1,0,0,https://pitchfinder.org.uk/map/site/6002374,,,,,,,,,,58,
NUFFIELD HEALTH (NORBURY),TRUE,TRUE,44 mins,50 mins,20 mins,35 mins,49 mins,37.25,40.00,44.00,50.00,20.00,35.00,49.00,1000071,51.405281,-0.118383,TRUE,TRUE,1,0,0,https://pitchfinder.org.uk/map/site/1000071,,,,,,,,,,59,
UPPER NORWOOD RECREATION GROUND,FALSE,FALSE,44 mins,44 mins,26 mins,37 mins,51 mins,37.75,40.00,44.00,44.00,26.00,37.00,51.00,6015742,51.418093,-0.093218,FALSE,FALSE,0,0,0,https://pitchfinder.org.uk/map/site/6015742,,,,,,,,,,60,
KING GEORGES PARK (SOUTH SITE),FALSE,TRUE,22 mins,34 mins,48 mins,47 mins,43 mins,37.75,40.00,22.00,34.00,48.00,47.00,43.00,6015419,51.446509,-0.195808,TRUE,TRUE,4,0,0,https://pitchfinder.org.uk/map/site/6015419,,,,,,,,,,61,
FARM ROAD PAVILION,FALSE,TRUE,24 mins,28 mins,46 mins,57 mins,48 mins,38.75,40.00,24.00,28.00,46.00,57.00,48.00,30009974,51.393714,-0.193058,TRUE,FALSE,1,0,0,https://pitchfinder.org.uk/map/site/30009974,,,,,,,,,,62,
PRINCE GEORGES PLAYING FIELDS,TRUE,TRUE,34 mins,43 mins,31 mins,49 mins,41 mins,39.25,40.00,34.00,43.00,31.00,49.00,41.00,6021098,51.405711,-0.226714,TRUE,TRUE,5,0,0,https://pitchfinder.org.uk/map/site/6021098,,,,,,,,,,63,
ST JAMES THE GREAT SCHOOL,FALSE,TRUE,53 mins,46 mins,21 mins,38 mins,52 mins,39.50,40.00,53.00,46.00,21.00,38.00,52.00,6014804,51.405655,-0.105887,TRUE,TRUE,2,0,0,https://pitchfinder.org.uk/map/site/6014804,,,,,,,,,,64,
ST JOSEPHS COLLEGE (NORBURY HILL PLAYING FIELD),FALSE,FALSE,45 mins,50 mins,21 mins,43 mins,51 mins,39.75,40.00,45.00,50.00,21.00,43.00,51.00,1041205,51.41826,-0.109175,FALSE,FALSE,1,0,0,https://pitchfinder.org.uk/map/site/1041205,,,,,,,,,,65,
MESSINES PLAYING FIELDS,FALSE,TRUE,32 mins,40 mins,36 mins,51 mins,48 mins,39.75,40.00,32.00,40.00,36.00,51.00,48.00,30008602,51.403209,-0.223552,TRUE,FALSE,1,0,0,https://pitchfinder.org.uk/map/site/30008602,,,,,,,,,,66,
KING GEORGES PARK (NORTH SITE),FALSE,TRUE,20 mins,33 mins,46 mins,1 hour 1 min,53 mins,40.00,40.00,20.00,33.00,46.00,61.00,53.00,1069127,51.449672,-0.193404,FALSE,TRUE,3,0,0,https://pitchfinder.org.uk/map/site/1069127,,,,,,,,,,67,
PYNNERS FIELD,FALSE,TRUE,1 hour 5 mins,39 mins,28 mins,29 mins,44 mins,40.25,40.00,65.00,39.00,28.00,29.00,44.00,6019404,51.440554,-0.077608,FALSE,TRUE,4,0,0,https://pitchfinder.org.uk/map/site/6019404,,,,,,,,,,68,
ST PHILOMENA'S SCHOOL,FALSE,TRUE,45 mins,37 mins,33 mins,46 mins,1 hour 5 mins,40.25,40.00,45.00,37.00,33.00,46.00,65.00,1200444,51.364279,-0.169767,TRUE,TRUE,3,0,0,https://pitchfinder.org.uk/map/site/1200444,,,,,,,,,,69,
THE OLD ROYAL & SUN ALLIANCE SPORTS GROUND,TRUE,TRUE,34 mins,43 mins,33 mins,51 mins,42 mins,40.25,40.00,34.00,43.00,33.00,51.00,42.00,1040256,51.405135,-0.232578,TRUE,TRUE,3,0,0,https://pitchfinder.org.uk/map/site/1040256,,,,,,,,,,70,
PECKHAM TOWN FC (MENACE ARENA),TRUE,TRUE,1 hour 1 min,52 mins,25 mins,24 mins,46 mins,40.50,40.00,61.00,52.00,25.00,24.00,46.00,6019410,51.443209,-0.077741,TRUE,TRUE,4,0,0,https://pitchfinder.org.uk/map/site/6019410,,,,,,,,,,71,
HARRIS ACADEMY UPPER NORWOOD,FALSE,TRUE,47 mins,48 mins,28 mins,41 mins,44 mins,41.00,40.00,47.00,48.00,28.00,41.00,44.00,1002856,51.413627,-0.094513,FALSE,FALSE,1,0,0,https://pitchfinder.org.uk/map/site/1002856,,,,,,,,,,72,
HABERDASHERS ASKES HATCHAM COLLEGE (NUNHEAD SPORTS FIELD),FALSE,TRUE,45 mins,43 mins,34 mins,42 mins,25 mins,41.00,40.00,45.00,43.00,34.00,42.00,25.00,1200666,51.465069,-0.048649,TRUE,TRUE,1,0,0,https://pitchfinder.org.uk/map/site/1200666,,,,,,,,,,73,
BEDDINGTON PARK,TRUE,FALSE,53 mins,36 mins,32 mins,45 mins,1 hour 1 min,41.50,40.00,53.00,36.00,32.00,45.00,61.00,6002118,51.375447,-0.144075,TRUE,FALSE,0,0,0,https://pitchfinder.org.uk/map/site/6002118,,,,,,,,,,74,
SOUTHWARK PARK SPORTS CENTRE,TRUE,TRUE,41 mins,40 mins,38 mins,50 mins,20 mins,42.25,40.00,41.00,40.00,38.00,50.00,20.00,1007728,51.492275,-0.051131,TRUE,FALSE,0,0,0,https://pitchfinder.org.uk/map/site/1007728,,,,,,,,,,75,
SOUTHWARK PARK,FALSE,TRUE,46 mins,36 mins,39 mins,50 mins,18 mins,42.75,40.00,46.00,36.00,39.00,50.00,18.00,20001954,51.494147,-0.053932,FALSE,TRUE,2,0,0,https://pitchfinder.org.uk/map/site/20001954,,,,,,,,,,76,
DULWICH COLLEGE (TREVOR BAILEY SPORTS GROUND),FALSE,TRUE,1 hour 3 mins,56 mins,27 mins,26 mins,37 mins,43.00,40.00,63.00,56.00,27.00,26.00,37.00,1042329,51.442686,-0.074892,TRUE,FALSE,2,0,0,https://pitchfinder.org.uk/map/site/1042329,,,,,,,,,,77,
SIR JOSEPH HOOD MEMORIAL PLAYING FIELDS,TRUE,TRUE,34 mins,51 mins,39 mins,49 mins,46 mins,43.25,40.00,34.00,51.00,39.00,49.00,46.00,6016998,51.392059,-0.237253,TRUE,TRUE,11,0,0,https://pitchfinder.org.uk/map/site/6016998,,,,,,,,,,78,
KINGS HALL RECREATION GROUND,FALSE,FALSE,55 mins,45 mins,39 mins,36 mins,34 mins,43.75,40.00,55.00,45.00,39.00,36.00,34.00,6006413,51.412773,-0.037544,FALSE,FALSE,0,0,0,https://pitchfinder.org.uk/map/site/6006413,,,,,,,,,,79,
SOUTH NORWOOD RECREATION GROUND,TRUE,TRUE,46 mins,40 mins,33 mins,56 mins,22 mins,43.75,40.00,46.00,40.00,33.00,56.00,22.00,6015726,51.39554,-0.076707,FALSE,TRUE,2,0,0,https://pitchfinder.org.uk/map/site/6015726,,,,,,,,,,80,
ARCHBISHOP TENISON'S SCHOOL SPORTS GROUND,TRUE,TRUE,35 mins,50 mins,40 mins,50 mins,47 mins,43.75,40.00,35.00,50.00,40.00,50.00,47.00,1203035,51.394556,-0.234122,TRUE,TRUE,4,0,0,https://pitchfinder.org.uk/map/site/1203035,,,,,,,,,,81,
WANDLE PARK,FALSE,FALSE,54 mins,36 mins,33 mins,53 mins,40 mins,44.00,40.00,54.00,36.00,33.00,53.00,40.00,6015769,51.37462,-0.111378,TRUE,FALSE,0,0,0,https://pitchfinder.org.uk/map/site/6015769,,,,,,,,,,82,
BURTON COURT PAVILION,FALSE,TRUE,43 mins,38 mins,58 mins,38 mins,31 mins,44.25,40.00,43.00,38.00,58.00,38.00,31.00,1045593,51.488059,-0.16134,TRUE,FALSE,1,0,0,https://pitchfinder.org.uk/map/site/1045593,,,,,,,,,,83,
DUPPAS HILL RECREATION GROUND,FALSE,TRUE,39 mins,36 mins,45 mins,57 mins,41 mins,44.25,40.00,39.00,36.00,45.00,57.00,41.00,1202785,51.366619,-0.110946,FALSE,TRUE,4,0,0,https://pitchfinder.org.uk/map/site/1202785,,,,,,,,,,84,
SUTTON COMMON RECREATION GROUND,FALSE,FALSE,27 mins,35 mins,52 mins,1 hour 3 mins,51 mins,44.25,40.00,27.00,35.00,52.00,63.00,51.00,6002145,51.38549,-0.205767,TRUE,FALSE,0,0,0,https://pitchfinder.org.uk/map/site/6002145,,,,,,,,,,85,
ROYSTON FIELD,FALSE,FALSE,50 mins,46 mins,44 mins,38 mins,44 mins,44.50,40.00,50.00,46.00,44.00,38.00,44.00,30008307,51.411543,-0.051963,FALSE,TRUE,1,0,0,https://pitchfinder.org.uk/map/site/30008307,,,,,,,,,,86,
DULWICH PARK,FALSE,TRUE,1 hour 0 mins,53 mins,33 mins,33 mins,46 mins,44.75,40.00,60.00,53.00,33.00,33.00,46.00,6015701,51.446341,-0.077165,TRUE,TRUE,3,0,0,https://pitchfinder.org.uk/map/site/6015701,,,,,,,,,,87,
THE ARCHBISHOP LANFRANC ACADEMY,FALSE,TRUE,38 mins,50 mins,49 mins,1 hour 4 mins,48 mins,50.25,50.00,38.00,50.00,49.00,64.00,48.00,1200358,51.391214,-0.13056,TRUE,TRUE,1,1,1,https://pitchfinder.org.uk/map/site/1200358,,,,,,,,,,88,
KING'S COLLEGE SCHOOL SPORTS GROUND,FALSE,TRUE,39 mins,43 mins,1 hour 1 min,55 mins,58 mins,49.50,50.00,39.00,43.00,61.00,55.00,58.00,1036690,51.3961,-0.230867,TRUE,TRUE,2,2,2,https://pitchfinder.org.uk/map/site/1036690,,,,,,,,,,89,
CARSHALTON BOYS SPORTS COLLEGE,FALSE,TRUE,39 mins,43 mins,40 mins,1 hour 13 mins,56 mins,48.75,50.00,39.00,43.00,40.00,73.00,56.00,1002226,51.37766,-0.17491,TRUE,TRUE,0,1,1,https://pitchfinder.org.uk/map/site/1002226,,,,,,,,,,90,
CANTERBURY ROAD RECREATION GROUND,FALSE,TRUE,40 mins,58 mins,37 mins,52 mins,44 mins,46.75,50.00,40.00,58.00,37.00,52.00,44.00,1007107,51.384689,-0.117331,FALSE,TRUE,0,1,1,https://pitchfinder.org.uk/map/site/1007107,,,,,,,,,,91,
BACONS COLLEGE SPORTS CENTRE,TRUE,TRUE,42 mins,37 mins,57 mins,51 mins,18 mins,46.75,50.00,42.00,37.00,57.00,51.00,18.00,1002204,51.502361,-0.0423,TRUE,TRUE,3,3,3,https://pitchfinder.org.uk/map/site/1002204,,,,,,,,3G pitch. Jack has reached out. Old raptors ground.,,92,
SUTTON UNITED FC,TRUE,TRUE,42 mins,57 mins,40 mins,56 mins,1 hour 3 mins,48.75,50.00,42.00,57.00,40.00,56.00,63.00,6010615,51.366979,-0.204195,TRUE,TRUE,4,0,1,https://pitchfinder.org.uk/map/site/6010615,,,,,,,,,,93,
GOALS (TOLWORTH),FALSE,TRUE,45 mins,48 mins,46 mins,56 mins,51 mins,48.75,50.00,45.00,48.00,46.00,56.00,51.00,1202970,51.377313,-0.277361,TRUE,TRUE,4,10,10,https://pitchfinder.org.uk/map/site/1202970,,,,,,,,,,94,
FISHPONDS PLAYING FIELDS,FALSE,TRUE,11 mins,20 mins,33 mins,51 mins,39 mins,28.75,30.00,11.00,20.00,33.00,51.00,39.00,6015252,51.432449,-0.169628,TRUE,TRUE,2,0,0,https://pitchfinder.org.uk/map/site/6015252,,,,Y,,Enquiring,Grass pitch managed by Wandsworth Council. Not in a park but very minimal facilities.,Enquired with idvere (who run Merton venues) if they also manage this venue 28/07.,Hoppo,23,
MILE END PARK LEISURE CENTRE AND STADIUM,TRUE,TRUE,46 mins,41 mins,1 hour 4 mins,57 mins,30 mins,52.00,50.00,46.00,41.00,64.00,57.00,30.00,1002343,51.519437,-0.031997,TRUE,TRUE,1,8,9,https://pitchfinder.org.uk/map/site/1002343,,,,,,,,,,95,
RAYNES PARK SPORTS GROUND,TRUE,TRUE,46 mins,46 mins,1 hour 7 mins,53 mins,45 mins,53.00,50.00,46.00,46.00,67.00,53.00,45.00,1044297,51.408474,-0.238599,TRUE,TRUE,4,2,2,https://pitchfinder.org.uk/map/site/1044297,,,,,,,,,,96,
HAGGERSTON PARK,TRUE,TRUE,46 mins,39 mins,1 hour 6 mins,1 hour 3 mins,33 mins,53.50,50.00,46.00,39.00,66.00,63.00,33.00,1103236,51.53179,-0.068452,TRUE,TRUE,0,1,1,https://pitchfinder.org.uk/map/site/1103236,,,,,,,,,,97,
BELAIR PARK,FALSE,TRUE,44 mins,36 mins,23 mins,27 mins,41 mins,32.50,30.00,44.00,36.00,23.00,27.00,41.00,6019433,51.443137,-0.090378,TRUE,TRUE,4,0,0,https://pitchfinder.org.uk/map/site/6019433,,,,,,Enquiring,Grass pitch run by Southwark council. Looks like two pitches back onto one another which would make it difficult for Lacrosse.,Emailed Mo at everyoneactive about this pitch 28/07.,Ridings V2,28,
DULWICH SPORTS CLUB,FALSE,TRUE,40 mins,33 mins,31 mins,28 mins,36 mins,33.00,30.00,40.00,33.00,31.00,28.00,36.00,1036089,51.448532,-0.096414,TRUE,TRUE,4,0,0,https://pitchfinder.org.uk/map/site/1036089,,,,,,Enquiring,"Grass pitch. Cricket, Croquet, Tennis and Squad club with community feel club house. Would need to play on the outskirts of the cricket field.",Not something they have done before but are interested in speaking with us to see if it can work with the cricket.,Ridings V2,29,
CHELSEA FC (STAMFORD BRIDGE),FALSE,TRUE,47 mins,42 mins,46 mins,49 mins,40 mins,46.00,50.00,47.00,42.00,46.00,49.00,40.00,30003613,51.48171,-0.191008,TRUE,FALSE,1,0,1,https://pitchfinder.org.uk/map/site/30003613,,,,,,,,,,100,
WEST HAM MEMORIAL RECREATION GROUND,TRUE,TRUE,48 mins,42 mins,1 hour 1 min,55 mins,24 mins,51.50,50.00,48.00,42.00,61.00,55.00,24.00,1202440,51.527641,0.009171,TRUE,TRUE,4,1,1,https://pitchfinder.org.uk/map/site/1202440,,,,,,,,,,101,
ARSENAL FC (EMIRATES STADIUM),FALSE,TRUE,48 mins,45 mins,54 mins,47 mins,33 mins,48.50,50.00,48.00,45.00,54.00,47.00,33.00,30003609,51.555078,-0.108464,TRUE,FALSE,1,0,1,https://pitchfinder.org.uk/map/site/30003609,,,,,,,,,,102,
ST DUNSTANS JUBILEE GROUND,TRUE,TRUE,49 mins,43 mins,42 mins,53 mins,29 mins,46.75,50.00,49.00,43.00,42.00,53.00,29.00,1003869,51.443418,-0.024834,TRUE,TRUE,8,8,8,https://pitchfinder.org.uk/map/site/1003869,,,,,,,,,,103,
NURSERY ROAD PLAYING FIELDS,FALSE,TRUE,19 mins,25 mins,38 mins,54 mins,43 mins,34.00,30.00,19.00,25.00,38.00,54.00,43.00,6017064,51.410856,-0.196696,TRUE,TRUE,3,0,0,https://pitchfinder.org.uk/map/site/6017064,,,,,,Enquiring,Grass pitch run by Merton Council. In a park and may be too open for Lacrosse.,Emailed 28/07.,Ridings V2,30,
MARKET ROAD ATP,TRUE,TRUE,49 mins,43 mins,55 mins,47 mins,34 mins,48.50,50.00,49.00,43.00,55.00,47.00,34.00,1103217,51.545604,-0.123604,FALSE,TRUE,0,5,5,https://pitchfinder.org.uk/map/site/1103217,,,,,,,,,,104,
PADDINGTON RECREATION GROUND,TRUE,TRUE,50 mins,45 mins,57 mins,47 mins,34 mins,49.75,50.00,50.00,45.00,57.00,47.00,34.00,1002361,51.530177,-0.191394,TRUE,TRUE,0,4,4,https://pitchfinder.org.uk/map/site/1002361,,,,,,,,,,105,
BARNES HOCKEY CLUB,TRUE,TRUE,50 mins,48 mins,50 mins,57 mins,#ERROR!,51.25,50.00,50.00,48.00,50.00,57.00,#ERROR!,1103227,51.472906,-0.258515,TRUE,TRUE,0,1,1,https://pitchfinder.org.uk/map/site/1103227,,,,,,,,,,106,
THE GODOLPHIN AND LATYMER SCHOOL,FALSE,TRUE,50 mins,48 mins,57 mins,51 mins,39 mins,51.50,50.00,50.00,48.00,57.00,51.00,39.00,1200533,51.495308,-0.229943,TRUE,FALSE,0,1,1,https://pitchfinder.org.uk/map/site/1200533,,,,,,,,,,107,
WHITTINGTON PARK SYNTHETIC TURF PITCH,TRUE,TRUE,51 mins,45 mins,57 mins,53 mins,34 mins,51.50,50.00,51.00,45.00,57.00,53.00,34.00,1035981,51.562471,-0.128599,FALSE,TRUE,0,1,1,https://pitchfinder.org.uk/map/site/1035981,,,,,,,,,,108,
LADYWELL ARENA,TRUE,TRUE,51 mins,45 mins,45 mins,57 mins,31 mins,49.50,50.00,51.00,45.00,45.00,57.00,31.00,1010216,51.450251,-0.022092,FALSE,TRUE,1,0,1,https://pitchfinder.org.uk/map/site/1010216,,,,,,,,,,109,
KINGS COLLEGE (HONOR OAK PARK SPORTS GROUND),FALSE,TRUE,52 mins,50 mins,54 mins,55 mins,26 mins,52.75,50.00,52.00,50.00,54.00,55.00,26.00,1200544,51.450105,-0.038031,TRUE,TRUE,3,2,2,https://pitchfinder.org.uk/map/site/1200544,,,,,,,,,,110,
STEPNEY GREEN PARK,TRUE,TRUE,52 mins,43 mins,54 mins,1 hour 1 min,30 mins,52.50,50.00,52.00,43.00,54.00,61.00,30.00,1103270,51.517866,-0.047591,FALSE,TRUE,1,1,1,https://pitchfinder.org.uk/map/site/1103270,,,,,,,,,,111,
UNIVERSITY OF WESTMINSTER (QUINTIN HOGG MEMORIAL SPORTS GROUND),FALSE,TRUE,53 mins,46 mins,52 mins,53 mins,48 mins,51.00,50.00,53.00,46.00,52.00,53.00,48.00,1002848,51.477403,-0.269549,TRUE,TRUE,0,2,2,https://pitchfinder.org.uk/map/site/1002848,,,,,,,,,,112,
BELLINGHAM LEISURE & LIFESTYLE CENTRE,TRUE,TRUE,53 mins,47 mins,42 mins,54 mins,38 mins,49.00,50.00,53.00,47.00,42.00,54.00,38.00,1003333,51.432266,-0.019474,TRUE,TRUE,3,1,1,https://pitchfinder.org.uk/map/site/1003333,,,,,,,,,,113,
CHISWICK RUGBY CLUB,FALSE,TRUE,53 mins,46 mins,52 mins,52 mins,47 mins,50.75,50.00,53.00,46.00,52.00,52.00,47.00,1202920,51.473625,-0.256339,TRUE,TRUE,0,1,1,https://pitchfinder.org.uk/map/site/1202920,,,,,,,,,,114,
CHISWICK SCHOOL,FALSE,TRUE,54 mins,47 mins,53 mins,53 mins,48 mins,51.75,50.00,54.00,47.00,53.00,53.00,48.00,1002238,51.48191,-0.259821,TRUE,TRUE,1,1,1,https://pitchfinder.org.uk/map/site/1002238,,,,,,,,,,115,
CHARLTON ATHLETIC FC (THE VALLEY),TRUE,TRUE,54 mins,47 mins,55 mins,1 hour 3 mins,29 mins,54.75,50.00,54.00,47.00,55.00,63.00,29.00,30003380,51.486469,0.036346,TRUE,FALSE,1,0,1,https://pitchfinder.org.uk/map/site/30003380,,,,,,,,,,116,
HURLINGHAM PARK,TRUE,TRUE,47 mins,47 mins,1 hour 4 mins,24 mins,#ERROR!,45.50,50.00,47.00,47.00,64.00,24.00,#ERROR!,1103239,51.468587,-0.202469,TRUE,TRUE,2,1,0,https://pitchfinder.org.uk/map/site/1103239,,,,,,,,,,117,
SOUTH HAMPSTEAD HIGH SCHOOL,FALSE,TRUE,54 mins,40 mins,52 mins,46 mins,27 mins,48.00,50.00,54.00,40.00,52.00,46.00,27.00,1038763,51.546189,-0.177231,FALSE,TRUE,0,1,0,https://pitchfinder.org.uk/map/site/1038763,,,,,,,,,,118,
HMP DOWNVIEW,FALSE,FALSE,55 mins,50 mins,46 mins,55 mins,1 hour 17 mins,51.50,50.00,55.00,50.00,46.00,55.00,77.00,30007456,51.339082,-0.188444,TRUE,FALSE,0,1,0,https://pitchfinder.org.uk/map/site/30007456,,,,,,,,,,119,
HMP HIGH DOWN,FALSE,FALSE,55 mins,51 mins,46 mins,55 mins,1 hour 17 mins,51.75,50.00,55.00,51.00,46.00,55.00,77.00,30007468,51.336841,-0.188734,FALSE,FALSE,0,1,0,https://pitchfinder.org.uk/map/site/30007468,,,,,,,,,,120,
RAVENSCOURT PARK,FALSE,FALSE,52 mins,49 mins,58 mins,54 mins,45 mins,53.25,50.00,52.00,49.00,58.00,54.00,45.00,1039916,51.497306,-0.240734,FALSE,TRUE,0,1,0,https://pitchfinder.org.uk/map/site/1039916,,,,,,,,,,121,
ARK ACADEMY,TRUE,TRUE,55 mins,48 mins,1 hour 1 min,55 mins,36 mins,54.75,50.00,55.00,48.00,61.00,55.00,36.00,1044006,51.564438,-0.27871,TRUE,TRUE,1,1,1,https://pitchfinder.org.uk/map/site/1044006,,,,,,,,,,122,
THE COUNTY GROUND (KENT),FALSE,TRUE,59 mins,53 mins,47 mins,44 mins,33 mins,50.75,50.00,59.00,53.00,47.00,44.00,33.00,1002947,51.419299,-0.02723,TRUE,TRUE,0,1,1,https://pitchfinder.org.uk/map/site/1002947,,,,,,,,,,123,
SEDGEHILL ACADEMY,FALSE,TRUE,59 mins,52 mins,48 mins,51 mins,44 mins,52.50,50.00,59.00,52.00,48.00,51.00,44.00,1038868,51.423143,-0.020789,TRUE,TRUE,2,1,1,https://pitchfinder.org.uk/map/site/1038868,,,,,,,,,,124,
ROSSLYN PARK RUGBY CLUB,FALSE,TRUE,1 hour 5 mins,44 mins,46 mins,52 mins,47 mins,51.75,50.00,65.00,44.00,46.00,52.00,47.00,1202068,51.464583,-0.246867,TRUE,TRUE,0,1,1,https://pitchfinder.org.uk/map/site/1202068,,,,,,,,,,125,
COOMBE WOOD SCHOOL,FALSE,TRUE,1 hour 6 mins,54 mins,43 mins,55 mins,42 mins,54.50,50.00,66.00,54.00,43.00,55.00,42.00,30009500,51.363217,-0.075432,TRUE,FALSE,0,1,1,https://pitchfinder.org.uk/map/site/30009500,,,,,,,,,,126,
GLENTHORNE HIGH SCHOOL,FALSE,TRUE,29 mins,35 mins,53 mins,1 hour 4 mins,52 mins,45.25,50.00,29.00,35.00,53.00,64.00,52.00,1008600,51.381061,-0.20123,TRUE,TRUE,4,0,0,https://pitchfinder.org.uk/map/site/1008600,,,,,,,,,,127,
RICHARD CHALLONER SCHOOL,FALSE,TRUE,41 mins,45 mins,43 mins,53 mins,47 mins,45.50,50.00,41.00,45.00,43.00,53.00,47.00,1200310,51.385277,-0.264904,TRUE,TRUE,4,0,0,https://pitchfinder.org.uk/map/site/1200310,,,,,,,,,,128,
BECKENHAM SPORTS CLUB,FALSE,TRUE,52 mins,48 mins,43 mins,40 mins,41 mins,45.75,50.00,52.00,48.00,43.00,40.00,41.00,1036072,51.413854,-0.020802,TRUE,TRUE,2,0,0,https://pitchfinder.org.uk/map/site/1036072,,,,,,,,,,129,
WEAVERS FIELD,FALSE,TRUE,44 mins,36 mins,51 mins,52 mins,28 mins,45.75,50.00,44.00,36.00,51.00,52.00,28.00,20000041,51.524807,-0.06076,FALSE,TRUE,4,0,0,https://pitchfinder.org.uk/map/site/20000041,,,,,,,,,,130,
MORDEN CRICKET CLUB,FALSE,TRUE,29 mins,36 mins,53 mins,1 hour 5 mins,53 mins,45.75,50.00,29.00,36.00,53.00,65.00,53.00,1040931,51.389492,-0.210497,TRUE,FALSE,0,0,0,https://pitchfinder.org.uk/map/site/1040931,,,,,,,,,,131,
BEVERLEY PARK,FALSE,TRUE,42 mins,47 mins,38 mins,56 mins,48 mins,45.75,50.00,42.00,47.00,38.00,56.00,48.00,1202982,51.403845,-0.247502,FALSE,FALSE,0,0,0,https://pitchfinder.org.uk/map/site/1202982,,,,,,,,,,132,
WORCESTER PARK ATHLETICS CLUB,TRUE,TRUE,32 mins,55 mins,44 mins,52 mins,44 mins,45.75,50.00,32.00,55.00,44.00,52.00,44.00,1207115,51.381724,-0.243755,FALSE,TRUE,3,0,0,https://pitchfinder.org.uk/map/site/1207115,,,,,,,,,,133,
DAVID WEIR LEISURE CENTRE,FALSE,TRUE,30 mins,35 mins,52 mins,1 hour 8 mins,51 mins,46.25,50.00,30.00,35.00,52.00,68.00,51.00,1002851,51.384426,-0.181178,TRUE,TRUE,0,0,0,https://pitchfinder.org.uk/map/site/1002851,,,,,,,,,,134,
SHOREDITCH PARK,FALSE,FALSE,41 mins,35 mins,56 mins,53 mins,25 mins,46.25,50.00,41.00,35.00,56.00,53.00,25.00,6014642,51.533341,-0.084789,FALSE,TRUE,1,0,0,https://pitchfinder.org.uk/map/site/6014642,,,,,,,,,,135,
REGENT'S PARK - THE HUB,TRUE,TRUE,49 mins,41 mins,51 mins,45 mins,26 mins,46.50,50.00,49.00,41.00,51.00,45.00,26.00,1202005,51.525546,-0.153731,FALSE,TRUE,27,0,0,https://pitchfinder.org.uk/map/site/1202005,,,,,,,,,,136,
FORDHAM PARK,FALSE,FALSE,42 mins,35 mins,56 mins,54 mins,17 mins,46.75,50.00,42.00,35.00,56.00,54.00,17.00,6002400,51.477653,-0.03647,FALSE,TRUE,1,0,0,https://pitchfinder.org.uk/map/site/6002400,,,,,,,,,,137,
ROSEHILL PARK,FALSE,TRUE,31 mins,40 mins,1 hour 1 min,59 mins,55 mins,47.75,50.00,31.00,40.00,61.00,59.00,55.00,1013998,51.377243,-0.195156,TRUE,FALSE,0,0,0,https://pitchfinder.org.uk/map/site/1013998,,,,,,,,,,138,
DULWICH SPORTS GROUND,TRUE,TRUE,50 mins,32 mins,28 mins,28 mins,38 mins,34.50,30.00,50.00,32.00,28.00,28.00,38.00,6019518,51.446373,-0.091252,TRUE,TRUE,17,0,0,https://pitchfinder.org.uk/map/site/6019518,,,,,,Enquiring,Grass pitches with club house and a community feel. Big ground very open with lots of sports going on at once. May need to put Lacrosse somewhere sensisble.,Emailed 28/07.,Ridings V2,31,
WIMBLEDON HIGH SCHOOL SPORT GROUND,FALSE,TRUE,32 mins,33 mins,53 mins,47 mins,50 mins,41.25,40.00,32.00,33.00,53.00,47.00,50.00,1201370,51.416143,-0.216221,TRUE,FALSE,0,1,1,https://pitchfinder.org.uk/map/site/1201370,,,Y,Y,,Enquiring,"90x40m, Sand-based",,Jack,35,
PECKHAM RYE PARK,TRUE,TRUE,54 mins,56 mins,41 mins,41 mins,35 mins,48.00,50.00,54.00,56.00,41.00,41.00,35.00,6019462,51.456596,-0.057635,TRUE,TRUE,6,0,0,https://pitchfinder.org.uk/map/site/6019462,,,,,,,,,,139,
TOLWORTH COURT GROUND,FALSE,TRUE,44 mins,48 mins,45 mins,55 mins,50 mins,48.00,50.00,44.00,48.00,45.00,55.00,50.00,1200420,51.375457,-0.274629,TRUE,TRUE,14,0,0,https://pitchfinder.org.uk/map/site/1200420,,,,,,,,,,140,
BATTERSEA PARK,FALSE,TRUE,51 mins,37 mins,56 mins,49 mins,38 mins,48.25,50.00,51.00,37.00,56.00,49.00,38.00,1202481,51.479302,-0.158182,TRUE,TRUE,3,0,0,https://pitchfinder.org.uk/map/site/1202481,,,,,,,,,,141,
WIMBLEDON PARK,FALSE,TRUE,39 mins,47 mins,55 mins,53 mins,57 mins,48.50,50.00,39.00,47.00,55.00,53.00,57.00,1040513,51.439306,-0.205732,TRUE,TRUE,2,0,0,https://pitchfinder.org.uk/map/site/1040513,,,,,,,,,,142,
KING GEORGES PLAYING FIELDS (MORDEN),FALSE,TRUE,31 mins,43 mins,54 mins,1 hour 6 mins,56 mins,48.50,50.00,31.00,43.00,54.00,66.00,56.00,6016974,51.386696,-0.216541,TRUE,TRUE,12,0,0,https://pitchfinder.org.uk/map/site/6016974,,,,,,,,,,143,
REIGATE AVENUE RECREATION GROUND,FALSE,FALSE,37 mins,36 mins,59 mins,1 hour 3 mins,59 mins,48.75,50.00,37.00,36.00,59.00,63.00,59.00,6002150,51.38214,-0.199463,FALSE,TRUE,3,0,0,https://pitchfinder.org.uk/map/site/6002150,,,,,,,,,,144,
WANDSWORTH PARK,FALSE,TRUE,37 mins,40 mins,55 mins,1 hour 4 mins,44 mins,49.00,50.00,37.00,40.00,55.00,64.00,44.00,6015193,51.462312,-0.204305,FALSE,TRUE,3,0,0,https://pitchfinder.org.uk/map/site/6015193,,,,,,,,,,145,
TUFNELL PARK PLAYING FIELDS,FALSE,TRUE,51 mins,42 mins,54 mins,49 mins,31 mins,49.00,50.00,51.00,42.00,54.00,49.00,31.00,6003205,51.557779,-0.133406,FALSE,TRUE,2,0,0,https://pitchfinder.org.uk/map/site/6003205,,,,,,,,,,146,
CRYSTAL PALACE NATIONAL SPORTS CENTRE,FALSE,TRUE,37 mins,32 mins,29 mins,44 mins,36 mins,35.50,40.00,37.00,32.00,29.00,44.00,36.00,1002141,51.418999,-0.067769,TRUE,TRUE,1,4,4,https://pitchfinder.org.uk/map/site/1002141,,Y,Y,Y,,Unsuitable (terms),Sand-based 90x50m. Awesome sports facilities.,28 day cancelation policy. Bad reviews of the facilities.,Alice,39,
FULHAM FC TRAINING GROUND,TRUE,TRUE,37 mins,45 mins,42 mins,52 mins,49 mins,44.00,40.00,37.00,45.00,42.00,52.00,49.00,1103274,51.392201,-0.246171,TRUE,FALSE,6,2,3,https://pitchfinder.org.uk/map/site/1103274,,,,,,Unsuitable ,Fulham Football Ground,,Jack,40,
AFC CROYDON ATHLETIC TRAINING GROUND,FALSE,TRUE,45 mins,59 mins,39 mins,54 mins,50 mins,49.25,50.00,45.00,59.00,39.00,54.00,50.00,1041285,51.393378,-0.126305,TRUE,TRUE,4,0,0,https://pitchfinder.org.uk/map/site/1041285,,,,,,,,,,147,
OLD DEER PARK,FALSE,TRUE,38 mins,44 mins,1 hour 0 mins,55 mins,45 mins,49.25,50.00,38.00,44.00,60.00,55.00,45.00,1202537,51.464844,-0.310587,TRUE,TRUE,3,0,0,https://pitchfinder.org.uk/map/site/1202537,,,,,,,,,,148,
FAIRFIELD RECREATION GROUND,FALSE,TRUE,45 mins,52 mins,43 mins,58 mins,53 mins,49.50,50.00,45.00,52.00,43.00,58.00,53.00,1202978,51.408505,-0.299053,FALSE,TRUE,4,0,0,https://pitchfinder.org.uk/map/site/1202978,,,,,,,,,,149,
VICTORIA RECREATION GROUND (SURBITON),FALSE,TRUE,41 mins,51 mins,47 mins,59 mins,52 mins,49.50,50.00,41.00,51.00,47.00,59.00,52.00,1202981,51.388888,-0.314837,FALSE,TRUE,2,0,0,https://pitchfinder.org.uk/map/site/1202981,,,,,,,,,,150,
COOMBE BOYS SCHOOL,FALSE,TRUE,47 mins,48 mins,47 mins,57 mins,53 mins,49.75,50.00,47.00,48.00,47.00,57.00,53.00,1200383,51.395435,-0.247059,TRUE,TRUE,2,0,0,https://pitchfinder.org.uk/map/site/1200383,,,,,,,,,,151,
KINGS FIELD,FALSE,TRUE,48 mins,51 mins,43 mins,57 mins,53 mins,49.75,50.00,48.00,51.00,43.00,57.00,53.00,30004669,51.411124,-0.312485,FALSE,TRUE,5,0,0,https://pitchfinder.org.uk/map/site/30004669,,,,,,,,,,152,
ST CATHERINES PLAYING FIELDS,FALSE,TRUE,38 mins,38 mins,52 mins,1 hour 13 mins,53 mins,50.25,50.00,38.00,38.00,52.00,73.00,53.00,30004856,51.395918,-0.227649,TRUE,TRUE,4,0,0,https://pitchfinder.org.uk/map/site/30004856,,,,,,,,,,153,
OVERTON GRANGE SCHOOL,FALSE,TRUE,54 mins,42 mins,39 mins,1 hour 8 mins,1 hour 14 mins,50.75,50.00,54.00,42.00,39.00,68.00,74.00,1007950,51.352217,-0.195682,TRUE,TRUE,2,0,0,https://pitchfinder.org.uk/map/site/1007950,,,,,,,,,,154,
SYDENHAM SPORTS GROUND,TRUE,TRUE,56 mins,50 mins,51 mins,48 mins,30 mins,51.25,50.00,56.00,50.00,51.00,48.00,30.00,1039306,51.421907,-0.038266,TRUE,TRUE,2,0,0,https://pitchfinder.org.uk/map/site/1039306,,,,,,,,,,155,
CRYSTAL PALACE FC TRAINING GROUND,FALSE,TRUE,56 mins,50 mins,51 mins,48 mins,30 mins,51.25,50.00,56.00,50.00,51.00,48.00,30.00,30003615,51.418502,-0.030619,TRUE,FALSE,3,0,0,https://pitchfinder.org.uk/map/site/30003615,,,,,,,,,,156,
LLOYD PARK,FALSE,TRUE,1 hour 2 mins,51 mins,40 mins,52 mins,39 mins,51.25,50.00,62.00,51.00,40.00,52.00,39.00,6015645,51.364526,-0.079362,TRUE,TRUE,4,0,0,https://pitchfinder.org.uk/map/site/6015645,,,,,,,,,,157,
NEWLAND ACADEMY,FALSE,TRUE,47 mins,59 mins,51 mins,49 mins,34 mins,51.50,50.00,47.00,59.00,51.00,49.00,34.00,1051978,51.458771,-0.049679,FALSE,FALSE,1,0,0,https://pitchfinder.org.uk/map/site/1051978,,,,,,,,,,158,
OLD WIMBLEDONIANS ASSOCIATION,TRUE,TRUE,41 mins,45 mins,1 hour 5 mins,55 mins,47 mins,51.50,50.00,41.00,45.00,65.00,55.00,47.00,1040921,51.410976,-0.241312,TRUE,TRUE,1,0,0,https://pitchfinder.org.uk/map/site/1040921,,,,,,,,,,159,
MEATH GARDENS,FALSE,FALSE,46 mins,41 mins,1 hour 3 mins,57 mins,30 mins,51.75,50.00,46.00,41.00,63.00,57.00,30.00,1040517,51.528182,-0.043073,FALSE,TRUE,1,0,0,https://pitchfinder.org.uk/map/site/1040517,,,,,,,,,,160,
OVERTON PARK,FALSE,TRUE,48 mins,47 mins,42 mins,1 hour 10 mins,1 hour 21 mins,51.75,50.00,48.00,47.00,42.00,70.00,81.00,6002153,51.351196,-0.200016,TRUE,TRUE,4,0,0,https://pitchfinder.org.uk/map/site/6002153,,,,,,,,,,161,
CATFORD WANDERERS SPORTS CLUB,TRUE,TRUE,58 mins,52 mins,47 mins,51 mins,43 mins,52.00,50.00,58.00,52.00,47.00,51.00,43.00,6006199,51.426703,-0.01327,TRUE,TRUE,2,0,0,https://pitchfinder.org.uk/map/site/6006199,,,,,,,,,,162,
DEPTFORD PARK,TRUE,TRUE,55 mins,47 mins,46 mins,1 hour 0 mins,31 mins,52.00,50.00,55.00,47.00,46.00,60.00,31.00,6002399,51.486628,-0.039348,FALSE,TRUE,2,0,0,https://pitchfinder.org.uk/map/site/6002399,,,,,,,,,,163,
WARREN AVENUE PLAYING FIELDS,TRUE,TRUE,59 mins,52 mins,48 mins,49 mins,44 mins,52.00,50.00,59.00,52.00,48.00,49.00,44.00,6021335,51.414357,-0.002761,TRUE,TRUE,6,0,0,https://pitchfinder.org.uk/map/site/6021335,,,,,,,,,,164,
HONOR OAK SPORTS GROUND,FALSE,FALSE,59 mins,45 mins,50 mins,55 mins,26 mins,52.25,50.00,59.00,45.00,50.00,55.00,26.00,6019121,51.452946,-0.04549,FALSE,TRUE,3,0,0,https://pitchfinder.org.uk/map/site/6019121,,,,,,,,,,165,
SYDENHAM HIGH SCHOOL GDST SPORTS GROUND,FALSE,TRUE,50 mins,44 mins,1 hour 0 mins,56 mins,29 mins,52.50,50.00,50.00,44.00,60.00,56.00,29.00,1200678,51.424256,-0.030263,TRUE,TRUE,2,0,0,https://pitchfinder.org.uk/map/site/1200678,,,,,,,,,,166,
SOUTH PARK (FULHAM),FALSE,TRUE,44 mins,45 mins,1 hour 4 mins,57 mins,50 mins,52.50,50.00,44.00,45.00,64.00,57.00,50.00,6003220,51.468788,-0.19509,FALSE,TRUE,2,0,0,https://pitchfinder.org.uk/map/site/6003220,,,,,,,,,,167,
GIBRALTAR RECREATION GROUND,FALSE,TRUE,41 mins,55 mins,53 mins,1 hour 1 min,53 mins,52.50,50.00,41.00,55.00,53.00,61.00,53.00,6002929,51.347306,-0.257567,TRUE,TRUE,2,0,0,https://pitchfinder.org.uk/map/site/6002929,,,,,,,,,,168,
CHEAM SPORTS CLUB,FALSE,TRUE,1 hour 6 mins,38 mins,41 mins,1 hour 6 mins,1 hour 8 mins,52.75,50.00,66.00,38.00,41.00,66.00,68.00,1036183,51.353714,-0.218832,TRUE,TRUE,5,0,0,https://pitchfinder.org.uk/map/site/1036183,,,,,,,,,,169,
KING GEORGES PLAYING FIELDS (CHESSINGTON),TRUE,TRUE,49 mins,53 mins,50 mins,1 hour 0 mins,56 mins,53.00,50.00,49.00,53.00,50.00,60.00,56.00,1202984,51.371622,-0.284109,TRUE,TRUE,7,0,0,https://pitchfinder.org.uk/map/site/1202984,,,,,,,,,,170,
MOORMEAD RECREATION,FALSE,FALSE,46 mins,50 mins,1 hour 2 mins,55 mins,47 mins,53.25,50.00,46.00,50.00,62.00,55.00,47.00,1023148,51.454228,-0.326337,FALSE,FALSE,0,0,0,https://pitchfinder.org.uk/map/site/1023148,,,,,,,,,,171,
CHEAM RECREATION GROUND,FALSE,TRUE,46 mins,49 mins,48 mins,1 hour 12 mins,1 hour 8 mins,53.75,50.00,46.00,49.00,48.00,72.00,68.00,6002141,51.362332,-0.222721,TRUE,TRUE,6,0,0,https://pitchfinder.org.uk/map/site/6002141,,,,,,,,,,172,
CROYDON ROAD RECREATION GROUND (KESLEY PARK),TRUE,TRUE,1 hour 4 mins,52 mins,53 mins,47 mins,37 mins,54.00,50.00,64.00,52.00,53.00,47.00,37.00,6002355,51.403498,-0.031736,FALSE,FALSE,0,0,0,https://pitchfinder.org.uk/map/site/6002355,,,,,,,,,,173,
BARN ELMS SPORTS TRUST,TRUE,TRUE,57 mins,51 mins,51 mins,57 mins,49 mins,54.00,50.00,57.00,51.00,51.00,57.00,49.00,1013939,51.474828,-0.235195,TRUE,TRUE,11,0,0,https://pitchfinder.org.uk/map/site/1013939,,,,,,,,,,174,
CHISWICK CRICKET CLUB,TRUE,TRUE,56 mins,49 mins,56 mins,55 mins,51 mins,54.00,50.00,56.00,49.00,56.00,55.00,51.00,1039092,51.479135,-0.258489,TRUE,TRUE,2,0,0,https://pitchfinder.org.uk/map/site/1039092,,,,,,,,,,175,
PARLIAMENT HILL FIELDS,FALSE,TRUE,54 mins,46 mins,1 hour 1 min,57 mins,37 mins,54.50,50.00,54.00,46.00,61.00,57.00,37.00,1011423,51.559302,-0.149772,TRUE,TRUE,2,0,0,https://pitchfinder.org.uk/map/site/1011423,,,,,,,,,,176,
HARRIS ACADEMY BECKENHAM,TRUE,TRUE,1 hour 1 min,57 mins,52 mins,49 mins,56 mins,54.75,50.00,61.00,57.00,52.00,49.00,56.00,1003320,51.400501,-0.026784,TRUE,TRUE,2,0,0,https://pitchfinder.org.uk/map/site/1003320,,,,,,,,,,177,
RAYNES PARK HIGH SCHOOL,FALSE,TRUE,48 mins,46 mins,1 hour 9 mins,57 mins,1 hour 6 mins,55.00,60.00,48.00,46.00,69.00,57.00,66.00,1009904,51.403406,-0.238162,TRUE,TRUE,0,1,1,https://pitchfinder.org.uk/map/site/1009904,,,,,,,,,,178,
NONSUCH HIGH SCHOOL FOR GIRLS,FALSE,TRUE,49 mins,47 mins,50 mins,1 hour 15 mins,1 hour 9 mins,55.25,60.00,49.00,47.00,50.00,75.00,69.00,1019112,51.355434,-0.223734,TRUE,TRUE,0,1,1,https://pitchfinder.org.uk/map/site/1019112,,,,,,,,,,179,
DRAPERS SPORTS GROUND,FALSE,TRUE,50 mins,45 mins,1 hour 7 mins,1 hour 1 min,34 mins,55.75,60.00,50.00,45.00,67.00,61.00,34.00,6006409,51.552033,-0.005711,TRUE,TRUE,1,1,1,https://pitchfinder.org.uk/map/site/6006409,,,,,,,,,,180,
HARRIS ACADEMY MERTON,FALSE,TRUE,45 mins,31 mins,26 mins,42 mins,56 mins,36.00,40.00,45.00,31.00,26.00,42.00,56.00,1009906,51.403609,-0.133591,TRUE,TRUE,0,1,1,https://pitchfinder.org.uk/map/site/1009906,,Y,Y,Y,,Enquiring,"sand, 95x50m, £95/hour",,Hoppo,44,
TOOTING TRIANGLE,,,,,,,33 mins,,,,,,,33.00,,51.4405342,-0.1425663,FALSE,TRUE,0,1,1,https://tootingtriangle.com/,,,,Y,Under Construction,Under Construction,,,Ridings V2,182,
COLFE'S LEISURE CENTRE,FALSE,TRUE,51 mins,45 mins,1 hour 5 mins,1 hour 9 mins,26 mins,57.50,60.00,51.00,45.00,65.00,69.00,26.00,1002242,51.449437,0.019393,TRUE,TRUE,1,1,1,https://pitchfinder.org.uk/map/site/1002242,,,,,,,,,,183,
WANDGAS SPORTS AND SOCIAL CLUB,TRUE,TRUE,51 mins,1 hour 14 mins,1 hour 3 mins,1 hour 9 mins,1 hour 2 mins,64.25,60.00,51.00,74.00,63.00,69.00,62.00,1038935,51.373759,-0.26077,TRUE,TRUE,2,1,1,https://pitchfinder.org.uk/map/site/1038935,,,,,,,,,,184,
FULHAM FC (CRAVEN COTTAGE),FALSE,TRUE,53 mins,54 mins,56 mins,59 mins,55 mins,55.50,60.00,53.00,54.00,56.00,59.00,55.00,30003378,51.47452,-0.22061,FALSE,FALSE,1,0,1,https://pitchfinder.org.uk/map/site/30003378,,,,,,,,,,185,
CHOBHAM ACADEMY,TRUE,TRUE,54 mins,48 mins,59 mins,1 hour 5 mins,37 mins,56.50,60.00,54.00,48.00,59.00,65.00,37.00,30005569,51.549251,-0.007058,TRUE,TRUE,0,1,1,https://pitchfinder.org.uk/map/site/30005569,,,,,,,,,,186,
LEYTON ORIENT FC (THE BREYER GROUP STADIUM),FALSE,TRUE,54 mins,46 mins,1 hour 10 mins,1 hour 3 mins,37 mins,58.25,60.00,54.00,46.00,70.00,63.00,37.00,30003481,51.560212,-0.011886,FALSE,FALSE,1,0,1,https://pitchfinder.org.uk/map/site/30003481,,,,,,,,,,187,
LONDON STADIUM,FALSE,TRUE,54 mins,50 mins,1 hour 5 mins,1 hour 5 mins,38 mins,58.50,60.00,54.00,50.00,65.00,65.00,38.00,30003639,51.538634,-0.016431,TRUE,FALSE,1,0,1,https://pitchfinder.org.uk/map/site/30003639,,,,,,,,,,188,
COLDHARBOUR LEISURE CENTRE,FALSE,TRUE,55 mins,49 mins,1 hour 10 mins,1 hour 18 mins,30 mins,63.00,60.00,55.00,49.00,70.00,78.00,30.00,1002839,51.436698,0.054374,TRUE,TRUE,11,2,2,https://pitchfinder.org.uk/map/site/1002839,,,,,,,,,,189,
THE JOHN ROAN SCHOOL PLAYING FIELDS,FALSE,TRUE,55 mins,48 mins,1 hour 6 mins,1 hour 12 mins,41 mins,60.25,60.00,55.00,48.00,66.00,72.00,41.00,6021293,51.456159,0.025314,TRUE,TRUE,4,1,1,https://pitchfinder.org.uk/map/site/6021293,,,,,,,,,,190,
ROYAL DOCKS ACADEMY,FALSE,TRUE,56 mins,50 mins,58 mins,58 mins,#ERROR!,55.50,60.00,56.00,50.00,58.00,58.00,#ERROR!,1007952,51.510991,0.034999,TRUE,TRUE,0,1,1,https://pitchfinder.org.uk/map/site/1007952,,,,,,,,,,191,
PRENDERGAST LADYWELL SCHOOL,TRUE,TRUE,56 mins,50 mins,1 hour 7 mins,57 mins,37 mins,57.50,60.00,56.00,50.00,67.00,57.00,37.00,1002247,51.450246,-0.027159,TRUE,TRUE,0,1,1,https://pitchfinder.org.uk/map/site/1002247,,,,,,,,,,192,
CHEAM HIGH SCHOOL,FALSE,TRUE,40 mins,43 mins,1 hour 2 mins,1 hour 15 mins,59 mins,55.00,60.00,40.00,43.00,62.00,75.00,59.00,1002233,51.366432,-0.217669,TRUE,TRUE,0,2,0,https://pitchfinder.org.uk/map/site/1002233,,,,,,,,,,193,
THE HARRODIAN SCHOOL,FALSE,TRUE,1 hour 0 mins,53 mins,1 hour 6 mins,59 mins,1 hour 6 mins,59.50,60.00,60.00,53.00,66.00,59.00,66.00,1201697,51.481645,-0.244658,TRUE,FALSE,7,2,0,https://pitchfinder.org.uk/map/site/1201697,,,,,,,,,,194,
BLACKHEATH RFC (WELL HALL),FALSE,TRUE,56 mins,49 mins,1 hour 8 mins,1 hour 16 mins,46 mins,62.25,60.00,56.00,49.00,68.00,76.00,46.00,1040924,51.457896,0.047164,TRUE,TRUE,7,1,1,https://pitchfinder.org.uk/map/site/1040924,,,,,,,,,,195,
WEIR ARCHER ATHLETICS AND FITNESS CENTRE,FALSE,TRUE,57 mins,1 hour 2 mins,46 mins,1 hour 1 min,56 mins,56.50,60.00,57.00,62.00,46.00,61.00,56.00,1002316,51.405251,-0.283578,TRUE,TRUE,1,2,3,https://pitchfinder.org.uk/map/site/1002316,,,,,,,,,,196,
dat,TRUE,TRUE,57 mins,50 mins,57 mins,57 mins,#ERROR!,55.25,60.00,57.00,50.00,57.00,57.00,#ERROR!,6008056,51.477448,-0.25584,TRUE,TRUE,12,2,2,https://pitchfinder.org.uk/map/site/6008056,,,,,,,,,,197,
CRYSTAL PALACE FC ACADEMY,FALSE,TRUE,57 mins,50 mins,1 hour 8 mins,51 mins,31 mins,56.50,60.00,57.00,50.00,68.00,51.00,31.00,6006916,51.421472,-0.030498,TRUE,FALSE,3,2,1,https://pitchfinder.org.uk/map/site/6006916,,,,,,,,,,198,
TEDDINGTON SPORTS CENTRE,FALSE,TRUE,57 mins,1 hour 1 min,52 mins,1 hour 7 mins,1 hour 2 mins,59.25,60.00,57.00,61.00,52.00,67.00,62.00,1002406,51.423294,-0.310132,TRUE,TRUE,0,2,1,https://pitchfinder.org.uk/map/site/1002406,,,,,,,,,,199,
FOOTS CRAY RUGBY SPORTS AND ATHLETIC CLUB,TRUE,TRUE,57 mins,50 mins,1 hour 4 mins,1 hour 15 mins,37 mins,61.50,60.00,57.00,50.00,64.00,75.00,37.00,30005630,51.443787,0.069195,TRUE,TRUE,7,1,1,https://pitchfinder.org.uk/map/site/30005630,,,,,,,,,,200,
THE TIFFIN GIRLS' SCHOOL,TRUE,TRUE,57 mins,1 hour 8 mins,52 mins,1 hour 11 mins,1 hour 1 min,62.00,60.00,57.00,68.00,52.00,71.00,61.00,1010261,51.425571,-0.302934,TRUE,TRUE,0,1,1,https://pitchfinder.org.uk/map/site/1010261,,,,,,,,,,201,
BRENTFORD COMMUNITY STADIUM,FALSE,TRUE,57 mins,51 mins,57 mins,57 mins,52 mins,55.50,60.00,57.00,51.00,57.00,57.00,52.00,30009098,51.49078,-0.28852,FALSE,FALSE,1,0,1,https://pitchfinder.org.uk/map/site/30009098,,,,,,,,,,202,
LONDON MARATHON COMMUNITY TRACK,FALSE,TRUE,57 mins,51 mins,1 hour 9 mins,1 hour 9 mins,#ERROR!,61.50,60.00,57.00,51.00,69.00,69.00,#ERROR!,30009812,51.536831,-0.016758,TRUE,TRUE,1,0,1,https://pitchfinder.org.uk/map/site/30009812,,,,,,,,,,203,
ELTHAM COLLEGE (COLLEGE MEADOW PAVILION),FALSE,TRUE,59 mins,48 mins,1 hour 1 min,1 hour 5 mins,34 mins,58.25,60.00,59.00,48.00,61.00,65.00,34.00,30009162,51.434214,0.029643,TRUE,FALSE,0,1,1,https://pitchfinder.org.uk/map/site/30009162,,,,,,,,,,204,
WHITGIFT SPORTS CENTRE,FALSE,TRUE,59 mins,52 mins,1 hour 5 mins,1 hour 15 mins,38 mins,62.75,60.00,59.00,52.00,65.00,75.00,38.00,1200350,51.359847,-0.101457,TRUE,TRUE,3,1,1,https://pitchfinder.org.uk/map/site/1200350,,,,,,,,,,205,
LEE VALLEY HOCKEY AND TENNIS CENTRE,FALSE,TRUE,1 hour 0 mins,53 mins,1 hour 10 mins,1 hour 10 mins,44 mins,63.25,60.00,60.00,53.00,70.00,70.00,44.00,1039386,51.553532,-0.014672,TRUE,TRUE,0,2,2,https://pitchfinder.org.uk/map/site/1039386,,,,,,,,,,206,
CHISLEHURST AND SIDCUP GRAMMAR SCHOOL,FALSE,TRUE,1 hour 0 mins,48 mins,1 hour 1 min,1 hour 5 mins,34 mins,58.50,60.00,60.00,48.00,61.00,65.00,34.00,1009851,51.435793,0.107782,TRUE,TRUE,0,1,1,https://pitchfinder.org.uk/map/site/1009851,,,,,,,,,,207,
OASIS ACADEMY SHIRLEY PARK,FALSE,TRUE,1 hour 0 mins,53 mins,1 hour 4 mins,1 hour 1 min,34 mins,59.50,60.00,60.00,53.00,64.00,61.00,34.00,1201220,51.383077,-0.063145,TRUE,TRUE,4,1,1,https://pitchfinder.org.uk/map/site/1201220,,,,,,,,,,208,
OLD ACTONIANS (BODDINGTON GARDENS),TRUE,TRUE,1 hour 0 mins,52 mins,1 hour 8 mins,1 hour 3 mins,45 mins,60.75,60.00,60.00,52.00,68.00,63.00,45.00,1040494,51.503885,-0.284883,TRUE,TRUE,5,1,1,https://pitchfinder.org.uk/map/site/1040494,,,,,,,,,,209,
LEYTON SPORTS GROUND,FALSE,TRUE,1 hour 0 mins,51 mins,1 hour 18 mins,1 hour 7 mins,41 mins,64.00,60.00,60.00,51.00,78.00,67.00,41.00,6021338,51.566935,-0.011696,TRUE,TRUE,2,0,2,https://pitchfinder.org.uk/map/site/6021338,,,,,,,,,,210,
QUEENS PARK RANGERS (LOFTUS ROAD),FALSE,TRUE,1 hour 0 mins,54 mins,1 hour 4 mins,55 mins,42 mins,58.25,60.00,60.00,54.00,64.00,55.00,42.00,30003651,51.509692,-0.232109,FALSE,FALSE,1,0,1,https://pitchfinder.org.uk/map/site/30003651,,,,,,,,,,211,
RAVENSBOURNE SCHOOL,FALSE,TRUE,1 hour 1 min,54 mins,55 mins,52 mins,58 mins,55.50,60.00,61.00,54.00,55.00,52.00,58.00,1009391,51.394017,0.020704,TRUE,TRUE,2,1,1,https://pitchfinder.org.uk/map/site/1009391,,,,,,,,,,212,
METROGAS AMATEUR SPORTS ASSOCIATION LTD,TRUE,TRUE,1 hour 1 min,50 mins,1 hour 3 mins,1 hour 7 mins,36 mins,60.25,60.00,61.00,50.00,63.00,67.00,36.00,1040013,51.4434,0.077885,TRUE,TRUE,4,1,1,https://pitchfinder.org.uk/map/site/1040013,,,,,,,,,,213,
TEDDINGTON LOCK PLAYING FIELDS,FALSE,TRUE,1 hour 1 min,1 hour 5 mins,56 mins,1 hour 11 mins,1 hour 10 mins,63.25,60.00,61.00,65.00,56.00,71.00,70.00,6002999,51.426411,-0.319907,TRUE,TRUE,4,1,1,https://pitchfinder.org.uk/map/site/6002999,,,,,,,,,,214,
CHARLTON ATHLETIC FC TRAINING GROUND,TRUE,TRUE,1 hour 2 mins,51 mins,1 hour 4 mins,1 hour 8 mins,37 mins,61.25,60.00,62.00,51.00,64.00,68.00,37.00,30007597,51.444937,0.070933,TRUE,FALSE,5,2,2,https://pitchfinder.org.uk/map/site/30007597,,,,,,,,,,215,
ST PAULS WAY TRUST SCHOOL,FALSE,TRUE,1 hour 2 mins,45 mins,1 hour 8 mins,1 hour 3 mins,36 mins,59.50,60.00,62.00,45.00,68.00,63.00,36.00,1042752,51.518642,-0.024593,TRUE,TRUE,0,1,1,https://pitchfinder.org.uk/map/site/1042752,,,,,,,,,,216,
HABERDASHERS' ASKE'S KNIGHTS ACADEMY,FALSE,TRUE,1 hour 2 mins,50 mins,1 hour 4 mins,1 hour 12 mins,37 mins,62.00,60.00,62.00,50.00,64.00,72.00,37.00,1002336,51.427913,0.01646,TRUE,TRUE,0,1,1,https://pitchfinder.org.uk/map/site/1002336,,,,,,,,,,217,
ACTONIANS SPORTS CLUB,TRUE,TRUE,1 hour 2 mins,58 mins,1 hour 10 mins,1 hour 3 mins,47 mins,63.25,60.00,62.00,58.00,70.00,63.00,47.00,1036190,51.501486,-0.288748,TRUE,TRUE,3,0,2,https://pitchfinder.org.uk/map/site/1036190,,,,,,,,,,218,
BECKENHAM TOWN FOOTBALL CLUB,TRUE,TRUE,1 hour 2 mins,56 mins,59 mins,52 mins,36 mins,57.25,60.00,62.00,56.00,59.00,52.00,36.00,6000699,51.391978,-0.028516,TRUE,TRUE,2,0,1,https://pitchfinder.org.uk/map/site/6000699,,,,,,,,,,219,
WESTWAY SPORTS & FITNESS CENTRE,TRUE,TRUE,1 hour 3 mins,55 mins,1 hour 7 mins,59 mins,#ERROR!,61.00,60.00,63.00,55.00,67.00,59.00,#ERROR!,1002435,51.516199,-0.219938,TRUE,TRUE,0,8,8,https://pitchfinder.org.uk/map/site/1002435,,,,,,,,,,220,
BROMLEY FOOTBALL CLUB (HAYES LANE),TRUE,TRUE,1 hour 3 mins,57 mins,57 mins,54 mins,1 hour 3 mins,57.75,60.00,63.00,57.00,57.00,54.00,63.00,6006395,51.390039,0.0204,TRUE,TRUE,0,3,3,https://pitchfinder.org.uk/map/site/6006395,,,,,,,,,,221,
ARK BURLINGTON DANES ACADEMY,FALSE,TRUE,1 hour 3 mins,55 mins,1 hour 10 mins,1 hour 2 mins,47 mins,62.50,60.00,63.00,55.00,70.00,62.00,47.00,1200384,51.518921,-0.229892,TRUE,TRUE,2,1,1,https://pitchfinder.org.uk/map/site/1200384,,,,,,,,,,222,
CHARLTON ATHLETIC COMMUNITY TRUST,TRUE,TRUE,1 hour 3 mins,52 mins,1 hour 5 mins,1 hour 17 mins,38 mins,64.25,60.00,63.00,52.00,65.00,77.00,38.00,1035945,51.444637,0.06882,TRUE,TRUE,0,1,1,https://pitchfinder.org.uk/map/site/1035945,,,,,,,,,,223,
WEMBLEY STADIUM,FALSE,TRUE,1 hour 3 mins,56 mins,1 hour 10 mins,1 hour 3 mins,44 mins,63.00,60.00,63.00,56.00,70.00,63.00,44.00,30006416,51.556692,-0.279666,TRUE,FALSE,1,0,1,https://pitchfinder.org.uk/map/site/30006416,,,,,,,,,,224,
LINFORD CHRISTIE OUTDOOR SPORTS CENTRE,TRUE,TRUE,1 hour 4 mins,1 hour 1 min,1 hour 11 mins,1 hour 3 mins,#ERROR!,64.75,60.00,64.00,61.00,71.00,63.00,#ERROR!,1002845,51.519985,-0.235938,TRUE,TRUE,1,5,6,https://pitchfinder.org.uk/map/site/1002845,,,,,,,,,,225,
BROMLEY HIGH SCHOOL,FALSE,TRUE,1 hour 4 mins,58 mins,1 hour 6 mins,54 mins,42 mins,60.50,60.00,64.00,58.00,66.00,54.00,42.00,1201069,51.3953,0.057102,TRUE,TRUE,0,1,1,https://pitchfinder.org.uk/map/site/1201069,,,,,,,,,,226,
LATYMER UPPER SCHOOL PLAYING FIELDS,FALSE,TRUE,1 hour 4 mins,58 mins,1 hour 8 mins,59 mins,45 mins,62.25,60.00,64.00,58.00,68.00,59.00,45.00,30004357,51.518674,-0.228432,TRUE,FALSE,4,1,1,https://pitchfinder.org.uk/map/site/30004357,,,,,,,,,,227,
CHELSEA FC (KINGSMEADOW),FALSE,TRUE,1 hour 4 mins,1 hour 1 min,46 mins,1 hour 0 mins,56 mins,57.75,60.00,64.00,61.00,46.00,60.00,56.00,1202946,51.405015,-0.283221,TRUE,FALSE,1,0,1,https://pitchfinder.org.uk/map/site/1202946,,,,,,,,,,228,
CLUB LANGLEY,FALSE,TRUE,1 hour 5 mins,58 mins,1 hour 3 mins,1 hour 6 mins,39 mins,63.00,60.00,65.00,58.00,63.00,66.00,39.00,6006972,51.38652,-0.019984,TRUE,TRUE,7,2,2,https://pitchfinder.org.uk/map/site/6006972,,,,,,,,,,229,
DOWNHAM HEALTH & LEISURE CENTRE,FALSE,TRUE,1 hour 5 mins,54 mins,1 hour 2 mins,1 hour 12 mins,40 mins,63.25,60.00,65.00,54.00,62.00,72.00,40.00,1002840,51.426082,0.012021,TRUE,TRUE,4,1,1,https://pitchfinder.org.uk/map/site/1002840,,,,,,,,,,230,
ORLEANS PARK SCHOOL,TRUE,TRUE,49 mins,51 mins,1 hour 14 mins,58 mins,50 mins,58.00,60.00,49.00,51.00,74.00,58.00,50.00,1007949,51.449499,-0.32031,TRUE,TRUE,0,1,0,https://pitchfinder.org.uk/map/site/1007949,,,,,,,,,,231,
UNIVERSITY OF GREENWICH (SPARROWS FARM),FALSE,TRUE,59 mins,48 mins,1 hour 1 min,1 hour 5 mins,34 mins,58.25,60.00,59.00,48.00,61.00,65.00,34.00,1002393,51.44393,0.074612,TRUE,TRUE,4,1,0,https://pitchfinder.org.uk/map/site/1002393,,,,,,,,,,232,
WEST THAMES COLLEGE,FALSE,TRUE,1 hour 2 mins,55 mins,1 hour 0 mins,1 hour 1 min,1 hour 6 mins,59.50,60.00,62.00,55.00,60.00,61.00,66.00,1200510,51.475199,-0.342176,TRUE,FALSE,1,1,0,https://pitchfinder.org.uk/map/site/1200510,,,,,,,,,,233,
ST PAULS SCHOOL,FALSE,TRUE,58 mins,57 mins,1 hour 6 mins,1 hour 0 mins,48 mins,60.25,60.00,58.00,57.00,66.00,60.00,48.00,1002977,51.487695,-0.237441,TRUE,TRUE,8,1,0,https://pitchfinder.org.uk/map/site/1002977,,,,,,,,,,234,
SHREWSBURY HOUSE SCHOOL,FALSE,TRUE,54 mins,1 hour 1 min,54 mins,1 hour 15 mins,52 mins,61.00,60.00,54.00,61.00,54.00,75.00,52.00,30005887,51.380295,-0.3055,TRUE,FALSE,0,1,0,https://pitchfinder.org.uk/map/site/30005887,,,,,,,,,,235,
SYDENHAM HIGH SCHOOL GDST,FALSE,TRUE,1 hour 22 mins,1 hour 1 min,50 mins,53 mins,37 mins,61.50,60.00,82.00,61.00,50.00,53.00,37.00,1200675,51.426351,-0.064265,TRUE,TRUE,0,1,0,https://pitchfinder.org.uk/map/site/1200675,,,,,,,,,,236,
THE SWEDISH SCHOOL,FALSE,TRUE,1 hour 5 mins,56 mins,1 hour 8 mins,1 hour 1 min,1 hour 6 mins,62.50,60.00,65.00,56.00,68.00,61.00,66.00,1201350,51.485187,-0.244622,FALSE,FALSE,0,1,0,https://pitchfinder.org.uk/map/site/1201350,,,,,,,,,,237,
CROYDON SPORTS ARENA,FALSE,TRUE,1 hour 5 mins,59 mins,46 mins,1 hour 0 mins,33 mins,57.50,60.00,65.00,59.00,46.00,60.00,33.00,1007111,51.393286,-0.060544,TRUE,TRUE,1,0,1,https://pitchfinder.org.uk/map/site/1007111,,,,,,,,,,238,
TRINITY SCHOOL (TRINITY SPORTS CLUB),FALSE,TRUE,1 hour 6 mins,59 mins,46 mins,58 mins,42 mins,57.25,60.00,66.00,59.00,46.00,58.00,42.00,1007955,51.374524,-0.060591,TRUE,TRUE,1,2,2,https://pitchfinder.org.uk/map/site/1007955,,,,,,,,,,239,
TEN-EM-BEE SPORTS DEVELOPMENT CENTRE,TRUE,TRUE,1 hour 6 mins,1 hour 3 mins,55 mins,1 hour 9 mins,45 mins,63.25,60.00,66.00,63.00,55.00,69.00,45.00,1202112,51.420295,-0.00558,TRUE,TRUE,4,1,1,https://pitchfinder.org.uk/map/site/1202112,,,,,,,,,,240,
LANGLEY PARK SPORTS CENTRE,FALSE,TRUE,1 hour 7 mins,1 hour 1 min,1 hour 6 mins,59 mins,41 mins,63.25,60.00,67.00,61.00,66.00,59.00,41.00,1002147,51.388426,-0.017827,TRUE,TRUE,0,1,1,https://pitchfinder.org.uk/map/site/1002147,,,,,,,,,,241,
PRIORY SCHOOL,FALSE,TRUE,43 mins,46 mins,25 mins,33 mins,44 mins,36.75,40.00,43.00,46.00,25.00,33.00,44.00,1042368,51.419672,-0.095686,TRUE,FALSE,0,1,0,https://pitchfinder.org.uk/map/site/1042368,,,,,,Enquiring,Grass pitches. Unsure where these fields are but they are listed so will make an enquiry with the school and see.,Emailed 28/07.,Ridings V2,45,
CROYDON SPORTS CLUB,FALSE,TRUE,1 hour 7 mins,1 hour 1 min,59 mins,1 hour 7 mins,41 mins,63.50,60.00,67.00,61.00,59.00,67.00,41.00,1007941,51.341246,-0.061708,TRUE,TRUE,0,1,1,https://pitchfinder.org.uk/map/site/1007941,,,,,,,,,,242,
ISLEWORTH AND SYON SCHOOL FOR BOYS,FALSE,TRUE,1 hour 7 mins,1 hour 0 mins,1 hour 5 mins,1 hour 6 mins,1 hour 2 mins,64.50,60.00,67.00,60.00,65.00,66.00,62.00,1200904,51.480581,-0.341452,TRUE,TRUE,0,1,1,https://pitchfinder.org.uk/map/site/1200904,,,,,,,,,,243,
CROYGAS SPORTS CLUB,TRUE,TRUE,1 hour 8 mins,1 hour 13 mins,52 mins,1 hour 4 mins,50 mins,64.25,60.00,68.00,73.00,52.00,64.00,50.00,1202309,51.356801,-0.1313,TRUE,TRUE,3,1,1,https://pitchfinder.org.uk/map/site/1202309,,,,,,,,,,244,
BISHOP JUSTUS C OF E SCHOOL,TRUE,TRUE,1 hour 9 mins,1 hour 5 mins,1 hour 1 min,1 hour 2 mins,48 mins,64.25,60.00,69.00,65.00,61.00,62.00,48.00,1038248,51.382452,0.045072,TRUE,TRUE,2,2,2,https://pitchfinder.org.uk/map/site/1038248,,,,,,,,,,245,
SHENE SPORTS & FITNESS CENTRE,FALSE,TRUE,1 hour 9 mins,1 hour 3 mins,1 hour 3 mins,56 mins,54 mins,62.75,60.00,69.00,63.00,63.00,56.00,54.00,1002385,51.462792,-0.260031,TRUE,TRUE,0,1,1,https://pitchfinder.org.uk/map/site/1002385,,,,,,,,,,246,
EDEN PARK HIGH SCHOOL,FALSE,TRUE,1 hour 10 mins,1 hour 3 mins,1 hour 2 mins,59 mins,43 mins,63.50,60.00,70.00,63.00,62.00,59.00,43.00,30009690,51.394253,-0.0392,TRUE,FALSE,1,1,1,https://pitchfinder.org.uk/map/site/30009690,,,,,,,,,,247,
ROYAL RUSSELL SCHOOL,FALSE,TRUE,1 hour 11 mins,59 mins,48 mins,1 hour 1 min,46 mins,59.75,60.00,71.00,59.00,48.00,61.00,46.00,1007953,51.357607,-0.065714,TRUE,TRUE,5,2,2,https://pitchfinder.org.uk/map/site/1007953,,,,,,,,,,248,
BANK OF ENGLAND SPORTS CENTRE,TRUE,TRUE,1 hour 11 mins,55 mins,58 mins,1 hour 3 mins,1 hour 0 mins,61.75,60.00,71.00,55.00,58.00,63.00,60.00,1014569,51.459336,-0.254183,TRUE,TRUE,4,1,1,https://pitchfinder.org.uk/map/site/1014569,,,,,,,,,,249,
HOLLAND PARK,FALSE,TRUE,58 mins,51 mins,59 mins,52 mins,38 mins,55.00,60.00,58.00,51.00,59.00,52.00,38.00,1203026,51.503077,-0.203706,TRUE,TRUE,1,0,0,https://pitchfinder.org.uk/map/site/1203026,,,,,,,,,,250,
STANLEY PARK,FALSE,FALSE,52 mins,59 mins,43 mins,1 hour 7 mins,58 mins,55.25,60.00,52.00,59.00,43.00,67.00,58.00,6002147,51.355757,-0.162737,FALSE,FALSE,0,0,0,https://pitchfinder.org.uk/map/site/6002147,,,,,,,,,,251,
ELMS LANE PLAYING FIELD,TRUE,TRUE,54 mins,48 mins,1 hour 4 mins,56 mins,34 mins,55.50,60.00,54.00,48.00,64.00,56.00,34.00,30003451,51.437965,-0.031616,TRUE,TRUE,3,0,0,https://pitchfinder.org.uk/map/site/30003451,,,,,,,,,,252,
ROEHAMPTON PLAYING FIELDS,TRUE,TRUE,55 mins,57 mins,48 mins,1 hour 2 mins,49 mins,55.50,60.00,55.00,57.00,48.00,62.00,49.00,1202480,51.453977,-0.23822,FALSE,TRUE,10,0,0,https://pitchfinder.org.uk/map/site/1202480,,,,,,,,,,253,
KEIR HARDIE RECREATION GROUND,FALSE,FALSE,51 mins,47 mins,1 hour 5 mins,59 mins,28 mins,55.50,60.00,51.00,47.00,65.00,59.00,28.00,30004373,51.51183,0.015595,FALSE,TRUE,1,0,0,https://pitchfinder.org.uk/map/site/30004373,,,,,,,,,,254,
UNIVERSITY OF WESTMINSTER (RIVER PITCHES),FALSE,TRUE,57 mins,52 mins,57 mins,56 mins,52 mins,55.50,60.00,57.00,52.00,57.00,56.00,52.00,1042134,51.474939,-0.268707,TRUE,TRUE,1,0,0,https://pitchfinder.org.uk/map/site/1042134,,,,,,,,,,255,
PRENDERGAST SCHOOL GRASS PITCHES,FALSE,TRUE,1 hour 0 mins,54 mins,49 mins,1 hour 1 min,49 mins,56.00,60.00,60.00,54.00,49.00,61.00,49.00,1203260,51.434762,-0.007321,TRUE,FALSE,0,0,0,https://pitchfinder.org.uk/map/site/1203260,,,,,,,,,,256,
WHITGIFT SPORTS CLUB,TRUE,TRUE,1 hour 0 mins,53 mins,49 mins,1 hour 2 mins,37 mins,56.00,60.00,60.00,53.00,49.00,62.00,37.00,1202521,51.359448,-0.084711,TRUE,TRUE,1,0,0,https://pitchfinder.org.uk/map/site/1202521,,,,,,,,,,257,
STC IVOR GROVE SPORTS CLUB,TRUE,TRUE,56 mins,45 mins,58 mins,1 hour 6 mins,31 mins,56.25,60.00,56.00,45.00,58.00,66.00,31.00,6011859,51.440096,0.065579,TRUE,TRUE,3,0,0,https://pitchfinder.org.uk/map/site/6011859,,,,,,,,,,258,
NORTH SHEEN RECREATION GROUND,TRUE,TRUE,46 mins,48 mins,1 hour 2 mins,1 hour 9 mins,51 mins,56.25,60.00,46.00,48.00,62.00,69.00,51.00,6004145,51.470309,-0.285078,FALSE,TRUE,8,0,0,https://pitchfinder.org.uk/map/site/6004145,,,,,,,,,,259,
KING GEORGES PLAYING FIELDS (SIDCUP),FALSE,TRUE,57 mins,46 mins,59 mins,1 hour 3 mins,32 mins,56.25,60.00,57.00,46.00,59.00,63.00,32.00,6009171,51.433843,0.099175,TRUE,TRUE,3,0,0,https://pitchfinder.org.uk/map/site/6009171,,,,,,,,,,260,
MANOR PARK (NEW MALDEN),FALSE,TRUE,52 mins,1 hour 6 mins,49 mins,59 mins,54 mins,56.50,60.00,52.00,66.00,49.00,59.00,54.00,1202983,51.386962,-0.25006,TRUE,TRUE,4,0,0,https://pitchfinder.org.uk/map/site/1202983,,,,,,,,,,261,
KINGSTON ROAD RECREATION GROUND,FALSE,FALSE,1 hour 2 mins,1 hour 0 mins,45 mins,1 hour 0 mins,55 mins,56.75,60.00,62.00,60.00,45.00,60.00,55.00,6009825,51.404034,-0.278377,FALSE,FALSE,0,0,0,https://pitchfinder.org.uk/map/site/6009825,,,,,,,,,,262,
KINGS COLLEGE SPORTS GROUND,FALSE,TRUE,1 hour 5 mins,53 mins,50 mins,1 hour 0 mins,56 mins,57.00,60.00,65.00,53.00,50.00,60.00,56.00,1200549,51.395423,-0.271639,TRUE,TRUE,3,0,0,https://pitchfinder.org.uk/map/site/1200549,,,,,,,,,,263,
MILLWALL PARK,TRUE,TRUE,51 mins,45 mins,1 hour 8 mins,1 hour 5 mins,26 mins,57.25,60.00,51.00,45.00,68.00,65.00,26.00,6020696,51.489441,-0.01097,FALSE,TRUE,4,0,0,https://pitchfinder.org.uk/map/site/6020696,,,,,,,,,,264,
BARN ELMS SPORTS CENTRE,FALSE,TRUE,1 hour 0 mins,54 mins,55 mins,1 hour 0 mins,52 mins,57.25,60.00,60.00,54.00,55.00,60.00,52.00,1002835,51.475671,-0.230192,TRUE,TRUE,23,0,0,https://pitchfinder.org.uk/map/site/1002835,,,,,,,,,,265,
CHRISTS SCHOOL,TRUE,TRUE,49 mins,51 mins,1 hour 11 mins,58 mins,52 mins,57.25,60.00,49.00,51.00,71.00,58.00,52.00,1009884,51.458755,-0.288207,TRUE,TRUE,3,0,0,https://pitchfinder.org.uk/map/site/1009884,,,,,,,,,,266,
CARVILLE HALL PARK NORTH,TRUE,TRUE,59 mins,52 mins,59 mins,59 mins,54 mins,57.25,60.00,59.00,52.00,59.00,59.00,54.00,6007946,51.492383,-0.295305,FALSE,TRUE,1,0,0,https://pitchfinder.org.uk/map/site/6007946,,,,,,,,,,267,
MILLWALL FC TRAINING GROUND,FALSE,TRUE,1 hour 5 mins,58 mins,54 mins,53 mins,50 mins,57.50,60.00,65.00,58.00,54.00,53.00,50.00,30003442,51.417491,-0.002772,TRUE,FALSE,4,0,0,https://pitchfinder.org.uk/map/site/30003442,,,,,,,,,,268,
OBERON SPORTS GROUND,FALSE,TRUE,47 mins,52 mins,1 hour 13 mins,58 mins,1 hour 8 mins,57.50,60.00,47.00,52.00,73.00,58.00,68.00,1201396,51.416521,-0.242693,TRUE,TRUE,2,0,0,https://pitchfinder.org.uk/map/site/1201396,,,,,,,,,,269,
HILLY FIELDS,FALSE,FALSE,52 mins,45 mins,1 hour 9 mins,1 hour 5 mins,28 mins,57.75,60.00,52.00,45.00,69.00,65.00,28.00,6002401,51.461291,-0.025233,FALSE,TRUE,2,0,0,https://pitchfinder.org.uk/map/site/6002401,,,,,,,,,,270,
HOME PARK,FALSE,TRUE,59 mins,51 mins,1 hour 11 mins,52 mins,32 mins,58.25,60.00,59.00,51.00,71.00,52.00,32.00,6002402,51.426746,-0.039079,FALSE,TRUE,1,0,0,https://pitchfinder.org.uk/map/site/6002402,,,,,,,,,,271,
DRAX PLAYING FIELDS,FALSE,TRUE,48 mins,52 mins,1 hour 12 mins,1 hour 2 mins,1 hour 9 mins,58.50,60.00,48.00,52.00,72.00,62.00,69.00,6016917,51.418323,-0.247919,TRUE,TRUE,3,0,0,https://pitchfinder.org.uk/map/site/6016917,,,,,,,,,,272,
ST JAMES MAR THOMA COMMUNITY SPORTS CENTRE,FALSE,TRUE,59 mins,47 mins,1 hour 0 mins,1 hour 8 mins,34 mins,58.50,60.00,59.00,47.00,60.00,68.00,34.00,1040012,51.441785,0.079422,TRUE,TRUE,2,0,0,https://pitchfinder.org.uk/map/site/1040012,,,,,,,,,,273,
EWELL CASTLE SCHOOL,FALSE,TRUE,51 mins,47 mins,1 hour 0 mins,1 hour 16 mins,1 hour 11 mins,58.50,60.00,51.00,47.00,60.00,76.00,71.00,1204497,51.35063,-0.246926,TRUE,TRUE,2,0,0,https://pitchfinder.org.uk/map/site/1204497,,,,,,,,,,274,
CHINBROOK MEADOWS,FALSE,TRUE,58 mins,46 mins,1 hour 0 mins,1 hour 11 mins,33 mins,58.75,60.00,58.00,46.00,60.00,71.00,33.00,6002405,51.42897,0.028319,TRUE,TRUE,2,0,0,https://pitchfinder.org.uk/map/site/6002405,,,,,,,,,,275,
BARTLETT PARK (TOWER HAMLETS),FALSE,TRUE,54 mins,47 mins,1 hour 8 mins,1 hour 6 mins,#ERROR!,58.75,60.00,54.00,47.00,68.00,66.00,#ERROR!,1040514,51.514789,-0.022019,FALSE,TRUE,2,0,0,https://pitchfinder.org.uk/map/site/1040514,,,,,,,,,,276,
EASTLEA COMMUNITY SCHOOL,FALSE,TRUE,55 mins,50 mins,1 hour 8 mins,1 hour 2 mins,30 mins,58.75,60.00,55.00,50.00,68.00,62.00,30.00,1200963,51.52297,0.009931,TRUE,TRUE,3,0,0,https://pitchfinder.org.uk/map/site/1200963,,,,,,,,,,277,
SIDCUP YOUTH CENTRE,FALSE,FALSE,1 hour 0 mins,48 mins,1 hour 1 min,1 hour 6 mins,35 mins,58.75,60.00,60.00,48.00,61.00,66.00,35.00,1202219,51.438179,0.104122,TRUE,TRUE,1,0,0,https://pitchfinder.org.uk/map/site/1202219,,,,,,,,,,278,
SOUTHBOROUGH HIGH SCHOOL GRASS PITCHES,FALSE,TRUE,52 mins,1 hour 2 mins,54 mins,1 hour 7 mins,49 mins,58.75,60.00,52.00,62.00,54.00,67.00,49.00,1042308,51.378162,-0.305016,FALSE,TRUE,3,0,0,https://pitchfinder.org.uk/map/site/1042308,,,,,,,,,,279,
BROOM ROAD RECREATION GROUND,FALSE,TRUE,56 mins,1 hour 3 mins,51 mins,1 hour 6 mins,1 hour 1 min,59.00,60.00,56.00,63.00,51.00,66.00,61.00,6004109,51.42224,-0.309968,TRUE,FALSE,0,0,0,https://pitchfinder.org.uk/map/site/6004109,,,,,,,,,,280,
WESTMINSTER FIELDS,FALSE,TRUE,59 mins,48 mins,1 hour 1 min,1 hour 9 mins,34 mins,59.25,60.00,59.00,48.00,61.00,69.00,34.00,1044938,51.425552,0.01815,FALSE,FALSE,3,0,0,https://pitchfinder.org.uk/map/site/1044938,,,,,,,,,,281,
LONDON SCHOOL OF ECONOMICS SPORTS GROUND,FALSE,TRUE,1 hour 2 mins,56 mins,51 mins,1 hour 8 mins,59 mins,59.25,60.00,62.00,56.00,51.00,68.00,59.00,1200781,51.393312,-0.270709,TRUE,TRUE,8,0,0,https://pitchfinder.org.uk/map/site/1200781,,,,,,,,,,282,
FIRHILL ROAD RECREATION GROUND,TRUE,TRUE,1 hour 1 min,54 mins,47 mins,1 hour 16 mins,35 mins,59.50,60.00,61.00,54.00,47.00,76.00,35.00,6006177,51.431008,-0.028566,FALSE,TRUE,6,0,0,https://pitchfinder.org.uk/map/site/6006177,,,,,,,,,,283,
LYLE PARK,FALSE,TRUE,53 mins,45 mins,1 hour 16 mins,1 hour 4 mins,31 mins,59.50,60.00,53.00,45.00,76.00,64.00,31.00,6009894,51.501667,0.024555,FALSE,TRUE,1,0,0,https://pitchfinder.org.uk/map/site/6009894,,,,,,,,,,284,
THE CITY OF LONDON ACADEMY (SOUTHWALK),FALSE,TRUE,46 mins,39 mins,37 mins,48 mins,20 mins,42.50,40.00,46.00,39.00,37.00,48.00,20.00,1007722,51.489226,-0.0647,TRUE,TRUE,0,1,1,https://pitchfinder.org.uk/map/site/1007722,,,Y,Y,,Available (Games),90x50m new 3G pitch <12m old. 30mins walk from London Bridge. Very close to bermondsey mile breweries etc. Decent school changing facilities and showers etc. Very keen to have us. £130/hr.,Available Saturday afternoons and Sunday mornings. Not available mid-week. Week day available next year.,Ridings,47,https://i.imgur.com/qVgvm4Y.jpeg
BLACKHEATH HOCKEY AND CATFORD & CYPHERS CRICKET CLUB,TRUE,TRUE,58 mins,51 mins,1 hour 13 mins,57 mins,35 mins,59.75,60.00,58.00,51.00,73.00,57.00,35.00,1040622,51.435367,-0.030591,TRUE,FALSE,2,0,0,https://pitchfinder.org.uk/map/site/1040622,,,,,,,,,,285,
WILSONS SCHOOL,FALSE,TRUE,1 hour 4 mins,1 hour 7 mins,48 mins,1 hour 0 mins,42 mins,59.75,60.00,64.00,67.00,48.00,60.00,42.00,1201235,51.358845,-0.128086,TRUE,TRUE,4,0,0,https://pitchfinder.org.uk/map/site/1201235,,,,,,,,,,286,
THE GREEN SCHOOL,FALSE,TRUE,1 hour 2 mins,55 mins,1 hour 1 min,1 hour 1 min,1 hour 9 mins,59.75,60.00,62.00,55.00,61.00,61.00,69.00,1200479,51.479116,-0.324943,TRUE,TRUE,3,0,0,https://pitchfinder.org.uk/map/site/1200479,,,,,,,,,,287,
CITY OF LONDON SCHOOL SPORTS GROUND,FALSE,TRUE,57 mins,51 mins,1 hour 4 mins,1 hour 8 mins,37 mins,60.00,60.00,57.00,51.00,64.00,68.00,37.00,1011535,51.434001,0.03205,TRUE,FALSE,5,0,0,https://pitchfinder.org.uk/map/site/1011535,,,,,,,,,,288,
DINTON FIELD,TRUE,TRUE,53 mins,1 hour 11 mins,51 mins,1 hour 6 mins,1 hour 1 min,60.25,60.00,53.00,71.00,51.00,66.00,61.00,6020753,51.422122,-0.292438,TRUE,TRUE,5,0,0,https://pitchfinder.org.uk/map/site/6020753,,,,,,,,,,289,
SCORE LEISURE CENTRE,TRUE,TRUE,54 mins,50 mins,1 hour 12 mins,1 hour 5 mins,38 mins,60.25,60.00,54.00,50.00,72.00,65.00,38.00,1008564,51.559988,-0.014088,TRUE,TRUE,0,0,0,https://pitchfinder.org.uk/map/site/1008564,,,,,,,,,,290,
MARBLE HILL PARK,FALSE,TRUE,53 mins,57 mins,1 hour 9 mins,1 hour 2 mins,51 mins,60.25,60.00,53.00,57.00,69.00,62.00,51.00,6009207,51.449944,-0.312044,TRUE,TRUE,7,0,0,https://pitchfinder.org.uk/map/site/6009207,,,,,,,,,,291,
FORSTER MEMORIAL PARK,TRUE,TRUE,1 hour 4 mins,1 hour 4 mins,53 mins,1 hour 1 min,48 mins,60.50,60.00,64.00,64.00,53.00,61.00,48.00,6002398,51.432219,-0.007132,FALSE,TRUE,6,0,0,https://pitchfinder.org.uk/map/site/6002398,,,,,,,,,,292,
RICHARDSON EVANS MEMORIAL PLAYING FIELDS,TRUE,TRUE,1 hour 2 mins,1 hour 1 min,56 mins,1 hour 3 mins,54 mins,60.50,60.00,62.00,61.00,56.00,63.00,54.00,1202483,51.436024,-0.249975,TRUE,TRUE,2,0,0,https://pitchfinder.org.uk/map/site/1202483,,,,,,,,,,293,
EDGEHILL PLAYING FIELDS,TRUE,FALSE,1 hour 14 mins,1 hour 2 mins,48 mins,1 hour 0 mins,43 mins,61.00,60.00,74.00,62.00,48.00,60.00,43.00,1041206,51.345371,-0.116642,FALSE,FALSE,5,0,0,https://pitchfinder.org.uk/map/site/1041206,,,,,,,,,,294,
THOMAS TALLIS SCHOOL,FALSE,TRUE,55 mins,48 mins,1 hour 7 mins,1 hour 15 mins,41 mins,61.25,60.00,55.00,48.00,67.00,75.00,41.00,1045662,51.465648,0.024737,TRUE,TRUE,2,0,0,https://pitchfinder.org.uk/map/site/1045662,,,,,,,,,,295,
BATTERSEA ALL WEATHER SPORTS GROUND,FALSE,TRUE,47 mins,37 mins,50 mins,48 mins,37 mins,45.50,50.00,47.00,37.00,50.00,48.00,37.00,1039318,51.476268,-0.159701,FALSE,TRUE,0,2,2,https://pitchfinder.org.uk/map/site/1039318,,,,Y,,Enquiring,"Good turf, not 3G.",Emailed 28/07,Ridings V2,98,https://enablelc.org/wp-content/uploads/2016/02/08.jpg
WALLINGTON SPORTS & SOCIAL CLUB,TRUE,TRUE,1 hour 4 mins,1 hour 9 mins,50 mins,1 hour 2 mins,44 mins,61.25,60.00,64.00,69.00,50.00,62.00,44.00,1040486,51.357901,-0.131517,TRUE,TRUE,4,0,0,https://pitchfinder.org.uk/map/site/1040486,,,,,,,,,,296,
RICHMOND UPON THAMES COLLEGE,FALSE,TRUE,49 mins,55 mins,1 hour 11 mins,1 hour 10 mins,53 mins,61.25,60.00,49.00,55.00,71.00,70.00,53.00,1007951,51.451435,-0.342383,TRUE,TRUE,2,0,0,https://pitchfinder.org.uk/map/site/1007951,,,,,,,,,,297,
BLACKHEATH,FALSE,FALSE,52 mins,45 mins,1 hour 4 mins,1 hour 26 mins,28 mins,61.75,60.00,52.00,45.00,64.00,86.00,28.00,6002397,51.471328,0.004493,TRUE,TRUE,10,0,0,https://pitchfinder.org.uk/map/site/6002397,,,,,,,,,,298,
WELL STREET COMMON,FALSE,FALSE,1 hour 0 mins,1 hour 1 min,1 hour 6 mins,1 hour 0 mins,41 mins,61.75,60.00,60.00,61.00,66.00,60.00,41.00,1039905,51.541523,-0.044563,FALSE,TRUE,3,0,0,https://pitchfinder.org.uk/map/site/1039905,,,,,,,,,,299,
GLADSTONE PARK,TRUE,TRUE,1 hour 2 mins,54 mins,1 hour 8 mins,1 hour 3 mins,44 mins,61.75,60.00,62.00,54.00,68.00,63.00,44.00,1202801,51.55977,-0.239634,TRUE,FALSE,0,0,0,https://pitchfinder.org.uk/map/site/1202801,,,,,,,,,,300,
SHIRLEY HIGH SCHOOL,FALSE,TRUE,1 hour 11 mins,1 hour 3 mins,53 mins,1 hour 1 min,44 mins,62.00,60.00,71.00,63.00,53.00,61.00,44.00,1200370,51.369521,-0.049322,TRUE,FALSE,2,0,0,https://pitchfinder.org.uk/map/site/1200370,,,,,,,,,,301,
ROEHAMPTON UNIVERSITY PLAYING FIELD,FALSE,TRUE,1 hour 0 mins,1 hour 6 mins,1 hour 1 min,1 hour 1 min,53 mins,62.00,60.00,60.00,66.00,61.00,61.00,53.00,1042109,51.44853,-0.244892,TRUE,FALSE,1,0,0,https://pitchfinder.org.uk/map/site/1042109,,,,,,,,,,302,
CANNING TOWN RECREATION GROUND,FALSE,FALSE,59 mins,54 mins,1 hour 2 mins,1 hour 13 mins,38 mins,62.00,60.00,59.00,54.00,62.00,73.00,38.00,6009891,51.515787,0.029932,FALSE,FALSE,0,0,0,https://pitchfinder.org.uk/map/site/6009891,,,,,,,,,,303,
BOWRING GROUP SPORTS CENTRE,TRUE,TRUE,57 mins,50 mins,1 hour 9 mins,1 hour 14 mins,31 mins,62.50,60.00,57.00,50.00,69.00,74.00,31.00,30007591,51.457293,0.014562,FALSE,TRUE,2,0,0,https://pitchfinder.org.uk/map/site/30007591,,,,,,,,,,304,
ALEXANDRA RECREATION GROUND,FALSE,TRUE,1 hour 3 mins,1 hour 8 mins,55 mins,1 hour 4 mins,51 mins,62.50,60.00,63.00,68.00,55.00,64.00,51.00,1202973,51.385991,-0.28747,FALSE,TRUE,3,0,0,https://pitchfinder.org.uk/map/site/1202973,,,,,,,,,,305,
VICTORIA PARK (HACKNEY),TRUE,TRUE,1 hour 1 min,58 mins,1 hour 8 mins,1 hour 4 mins,49 mins,62.75,60.00,61.00,58.00,68.00,64.00,49.00,6021082,51.540453,-0.033124,TRUE,TRUE,11,0,0,https://pitchfinder.org.uk/map/site/6021082,,,,,,,,,,306,
NPL SPORTS CLUB,TRUE,TRUE,1 hour 0 mins,1 hour 9 mins,54 mins,1 hour 8 mins,1 hour 3 mins,62.75,60.00,60.00,69.00,54.00,68.00,63.00,6005350,51.421212,-0.335701,TRUE,TRUE,6,0,0,https://pitchfinder.org.uk/map/site/6005350,,,,,,,,,,307,
CROFTON COUNTRY CLUB (CROFTON ALBION),TRUE,TRUE,57 mins,50 mins,1 hour 9 mins,1 hour 16 mins,36 mins,63.00,60.00,57.00,50.00,69.00,76.00,36.00,6011813,51.458184,0.01903,TRUE,TRUE,2,0,0,https://pitchfinder.org.uk/map/site/6011813,,,,,,,,,,308,
MELLOWS PARK,FALSE,FALSE,59 mins,1 hour 3 mins,51 mins,1 hour 19 mins,49 mins,63.00,60.00,59.00,63.00,51.00,79.00,49.00,6002167,51.36052,-0.134027,TRUE,FALSE,0,0,0,https://pitchfinder.org.uk/map/site/6002167,,,,,,,,,,309,
THE MEMORIAL GROUND,TRUE,TRUE,1 hour 5 mins,58 mins,1 hour 5 mins,1 hour 4 mins,1 hour 12 mins,63.00,60.00,65.00,58.00,65.00,64.00,72.00,6009751,51.477286,-0.334821,TRUE,TRUE,1,0,0,https://pitchfinder.org.uk/map/site/6009751,,,,,,,,,,310,
JOHN RUSKIN PLAYING FIELD,FALSE,TRUE,1 hour 13 mins,1 hour 3 mins,52 mins,1 hour 5 mins,48 mins,63.25,60.00,73.00,63.00,52.00,65.00,48.00,1202778,51.366064,-0.066567,TRUE,TRUE,1,0,0,https://pitchfinder.org.uk/map/site/1202778,,,,,,,,,,311,
YMCA (HAWKER),TRUE,TRUE,59 mins,1 hour 7 mins,54 mins,1 hour 13 mins,1 hour 3 mins,63.25,60.00,59.00,67.00,54.00,73.00,63.00,1002289,51.426921,-0.309213,TRUE,TRUE,2,0,0,https://pitchfinder.org.uk/map/site/1002289,,,,,,,,,,312,
CHILDS HILL PARK,TRUE,TRUE,1 hour 1 min,54 mins,1 hour 18 mins,1 hour 0 mins,43 mins,63.25,60.00,61.00,54.00,78.00,60.00,43.00,1202956,51.567426,-0.200755,FALSE,FALSE,0,0,0,https://pitchfinder.org.uk/map/site/1202956,,,,,,,,,,313,
TWYFORD C OF E HIGH SCHOOL,FALSE,TRUE,1 hour 4 mins,55 mins,1 hour 11 mins,1 hour 4 mins,48 mins,63.50,60.00,64.00,55.00,71.00,64.00,48.00,1042775,51.509647,-0.277994,TRUE,TRUE,1,0,0,https://pitchfinder.org.uk/map/site/1042775,,,,,,,,,,314,
QUEENS PARK COMMUNITY SCHOOL,FALSE,TRUE,1 hour 3 mins,59 mins,1 hour 10 mins,1 hour 3 mins,45 mins,63.75,60.00,63.00,59.00,70.00,63.00,45.00,1200757,51.540503,-0.2186,TRUE,TRUE,2,0,0,https://pitchfinder.org.uk/map/site/1200757,,,,,,,,,,315,
CHISLEHURST SPORTS AND COUNTRY CLUB,FALSE,TRUE,1 hour 4 mins,54 mins,1 hour 7 mins,1 hour 12 mins,39 mins,64.25,60.00,64.00,54.00,67.00,72.00,39.00,6002395,51.421119,0.04779,FALSE,TRUE,4,0,0,https://pitchfinder.org.uk/map/site/6002395,,,,,,,,,,316,
KENSINGTON MEMORIAL PARK,FALSE,TRUE,1 hour 8 mins,55 mins,1 hour 10 mins,1 hour 4 mins,46 mins,64.25,60.00,68.00,55.00,70.00,64.00,46.00,6002451,51.520931,-0.220211,FALSE,TRUE,1,0,0,https://pitchfinder.org.uk/map/site/6002451,,,,,,,,,,317,
HACKNEY DOWNS,TRUE,TRUE,1 hour 8 mins,1 hour 2 mins,1 hour 6 mins,1 hour 1 min,39 mins,64.25,60.00,68.00,62.00,66.00,61.00,39.00,6011878,51.554075,-0.061127,FALSE,TRUE,1,0,0,https://pitchfinder.org.uk/map/site/6011878,,,,,,,,,,318,
AURIOL PARK,TRUE,TRUE,50 mins,1 hour 15 mins,1 hour 2 mins,1 hour 10 mins,1 hour 2 mins,64.25,60.00,50.00,75.00,62.00,70.00,62.00,6002933,51.370401,-0.256584,TRUE,TRUE,5,0,0,https://pitchfinder.org.uk/map/site/6002933,,,,,,,,,,319,
IBSTOCK PLACE SCHOOL,FALSE,TRUE,1 hour 3 mins,1 hour 9 mins,1 hour 3 mins,1 hour 3 mins,1 hour 20 mins,64.50,60.00,63.00,69.00,63.00,63.00,80.00,1036598,51.454735,-0.253405,TRUE,TRUE,2,0,0,https://pitchfinder.org.uk/map/site/1036598,,,,,,,,,,320,
ELTHAM TOWN FOOTBALL CLUB,TRUE,TRUE,1 hour 1 min,50 mins,1 hour 3 mins,1 hour 24 mins,36 mins,64.50,60.00,61.00,50.00,63.00,84.00,36.00,1039874,51.44281,0.062025,TRUE,TRUE,5,0,0,https://pitchfinder.org.uk/map/site/1039874,,,,,,,,,,321,
RIVERSIDE LANDS PLAYING FIELDS,TRUE,TRUE,1 hour 3 mins,56 mins,1 hour 7 mins,1 hour 12 mins,1 hour 4 mins,64.50,60.00,63.00,56.00,67.00,72.00,64.00,30005701,51.473229,-0.263172,TRUE,TRUE,17,0,0,https://pitchfinder.org.uk/map/site/30005701,,,,,,,,,,322,
THE ELLEN WILKINSON SCHOOL FOR GIRLS,FALSE,TRUE,1 hour 2 mins,1 hour 2 mins,1 hour 9 mins,1 hour 5 mins,47 mins,64.50,60.00,62.00,62.00,69.00,65.00,47.00,1203184,51.516377,-0.287527,TRUE,TRUE,1,0,0,https://pitchfinder.org.uk/map/site/1203184,,,,,,,,,,323,
OAKS PARK HIGH SCHOOL,FALSE,TRUE,1 hour 1 min,1 hour 9 mins,52 mins,1 hour 17 mins,1 hour 9 mins,64.75,60.00,61.00,69.00,52.00,77.00,69.00,1044807,51.346156,-0.166713,TRUE,FALSE,1,0,0,https://pitchfinder.org.uk/map/site/1044807,,,,,,,,,,324,
WIBBANDUNE SPORTS GROUND,TRUE,TRUE,52 mins,56 mins,1 hour 16 mins,1 hour 24 mins,1 hour 13 mins,67.00,70.00,52.00,56.00,76.00,84.00,73.00,30003048,51.421663,-0.252121,TRUE,TRUE,10,0,1,https://pitchfinder.org.uk/map/site/30003048,,,,,,,,,,325,
ARK ELVIN ACADEMY,FALSE,TRUE,54 mins,1 hour 3 mins,1 hour 20 mins,1 hour 9 mins,51 mins,66.50,70.00,54.00,63.00,80.00,69.00,51.00,1200524,51.55317,-0.290314,TRUE,TRUE,0,1,1,https://pitchfinder.org.uk/map/site/1200524,,,,,,,,,,326,
ERIC LIDDELL SPORTS CENTRE,FALSE,TRUE,58 mins,51 mins,1 hour 12 mins,1 hour 20 mins,33 mins,65.25,70.00,58.00,51.00,72.00,80.00,33.00,1002145,51.437817,0.040369,TRUE,TRUE,0,4,4,https://pitchfinder.org.uk/map/site/1002145,,,,,,,,,,327,
KIDBROOKE PLAYING FIELDS,TRUE,TRUE,59 mins,1 hour 4 mins,1 hour 11 mins,1 hour 19 mins,#ERROR!,68.25,70.00,59.00,64.00,71.00,79.00,#ERROR!,1103248,51.467237,0.031932,TRUE,TRUE,12,1,1,https://pitchfinder.org.uk/map/site/1103248,,,,,,,,,,328,
HMP BELMARSH,FALSE,TRUE,1 hour 6 mins,1 hour 5 mins,1 hour 17 mins,1 hour 17 mins,44 mins,71.25,70.00,66.00,65.00,77.00,77.00,44.00,30007441,51.496846,0.092704,TRUE,FALSE,0,3,0,https://pitchfinder.org.uk/map/site/30007441,,,,,,,,,,329,
FEEL GOOD TOO CENTRE (IVE FARM),FALSE,TRUE,1 hour 0 mins,52 mins,1 hour 17 mins,1 hour 12 mins,44 mins,65.25,70.00,60.00,52.00,77.00,72.00,44.00,1011469,51.563097,-0.021383,TRUE,TRUE,0,2,2,https://pitchfinder.org.uk/map/site/1011469,,,,,,,,,,330,
UNIVERSITY OF GREENWICH (AVERY HILL),FALSE,TRUE,1 hour 2 mins,56 mins,1 hour 9 mins,1 hour 13 mins,37 mins,65.00,70.00,62.00,56.00,69.00,73.00,37.00,1014643,51.446182,0.080965,TRUE,TRUE,0,2,2,https://pitchfinder.org.uk/map/site/1014643,,,,,,,,,,331,
HARRIS ACADEMY FALCONWOOD,FALSE,TRUE,1 hour 2 mins,55 mins,1 hour 14 mins,1 hour 20 mins,38 mins,67.75,70.00,62.00,55.00,74.00,80.00,38.00,1200730,51.458793,0.08837,TRUE,TRUE,2,1,1,https://pitchfinder.org.uk/map/site/1200730,,,,,,,,,,332,
SAMUEL MONTAGU YOUTH CENTRE,TRUE,TRUE,1 hour 2 mins,1 hour 7 mins,1 hour 14 mins,1 hour 21 mins,45 mins,71.00,70.00,62.00,67.00,74.00,81.00,45.00,6011947,51.467149,0.039966,TRUE,TRUE,4,1,1,https://pitchfinder.org.uk/map/site/6011947,,,,,,,,,,333,
EPSOM & EWELL HIGH SCHOOL,FALSE,TRUE,1 hour 3 mins,1 hour 17 mins,1 hour 13 mins,1 hour 13 mins,1 hour 22 mins,71.50,70.00,63.00,77.00,73.00,73.00,82.00,1003185,51.363082,-0.27393,TRUE,TRUE,1,2,2,https://pitchfinder.org.uk/map/site/1003185,,,,,,,,,,334,
LISTER COMMUNITY SCHOOL (SOUTHERN ROAD PLAYING FIELDS),TRUE,TRUE,1 hour 3 mins,53 mins,1 hour 12 mins,1 hour 14 mins,40 mins,65.50,70.00,63.00,53.00,72.00,74.00,40.00,1203177,51.529673,0.029589,TRUE,TRUE,0,1,1,https://pitchfinder.org.uk/map/site/1203177,,,,,,,,,,335,
SPOTTED DOG GROUND,TRUE,TRUE,1 hour 3 mins,59 mins,1 hour 17 mins,1 hour 13 mins,47 mins,68.00,70.00,63.00,59.00,77.00,73.00,47.00,6021001,51.541983,0.022869,TRUE,TRUE,1,0,1,https://pitchfinder.org.uk/map/site/6021001,,,,,,,,,,336,
STATIONERS CROWN WOODS ACADEMY,FALSE,TRUE,1 hour 6 mins,1 hour 6 mins,1 hour 17 mins,1 hour 23 mins,43 mins,73.00,70.00,66.00,66.00,77.00,83.00,43.00,1037848,51.453394,0.075774,TRUE,TRUE,2,1,3,https://pitchfinder.org.uk/map/site/1037848,,,,,,,,,,337,
CLUB DES SPORTS,TRUE,TRUE,1 hour 7 mins,1 hour 4 mins,1 hour 13 mins,1 hour 8 mins,51 mins,68.00,70.00,67.00,64.00,73.00,68.00,51.00,1003040,51.509706,-0.256477,TRUE,TRUE,1,4,4,https://pitchfinder.org.uk/map/site/1003040,,,,,,,,,,338,
GUNNERSBURY PARK SPORTS HUB,TRUE,TRUE,1 hour 7 mins,58 mins,1 hour 14 mins,1 hour 7 mins,51 mins,66.50,70.00,67.00,58.00,74.00,67.00,51.00,30008872,51.498614,-0.29173,FALSE,TRUE,9,2,2,https://pitchfinder.org.uk/map/site/30008872,,,,,,,,,,339,
TWYFORD AVENUE SPORTS GROUND,FALSE,TRUE,1 hour 7 mins,1 hour 2 mins,1 hour 14 mins,1 hour 7 mins,51 mins,67.50,70.00,67.00,62.00,74.00,67.00,51.00,30010141,51.511247,-0.279217,TRUE,TRUE,0,1,1,https://pitchfinder.org.uk/map/site/30010141,,,,,,,,,,340,
THE PAVILION AT STONEBRIDGE RECREATION GROUND,TRUE,TRUE,1 hour 8 mins,1 hour 4 mins,1 hour 20 mins,1 hour 10 mins,54 mins,70.50,70.00,68.00,64.00,80.00,70.00,54.00,1103271,51.541064,-0.266296,TRUE,TRUE,0,2,2,https://pitchfinder.org.uk/map/site/1103271,,,,,,,,,,341,
UNIVERSITY COLLEGE SCHOOL PLAYING FIELDS,FALSE,TRUE,1 hour 8 mins,1 hour 2 mins,1 hour 5 mins,1 hour 5 mins,46 mins,65.00,70.00,68.00,62.00,65.00,65.00,46.00,1201684,51.556563,-0.20346,TRUE,TRUE,8,1,1,https://pitchfinder.org.uk/map/site/1201684,,,,,,,,,,342,
GRASSHOPPERS RFC,FALSE,TRUE,1 hour 8 mins,1 hour 2 mins,1 hour 8 mins,1 hour 8 mins,1 hour 8 mins,66.50,70.00,68.00,62.00,68.00,68.00,68.00,30007656,51.486858,-0.336395,TRUE,TRUE,0,1,1,https://pitchfinder.org.uk/map/site/30007656,,,,,,,,,,343,
BLACKHEATH HIGH SCHOOL SPORTS GROUND,FALSE,TRUE,1 hour 8 mins,1 hour 2 mins,1 hour 27 mins,1 hour 15 mins,40 mins,73.00,70.00,68.00,62.00,87.00,75.00,40.00,6011819,51.467237,0.0243,TRUE,TRUE,0,1,1,https://pitchfinder.org.uk/map/site/6011819,,,,,,,,,,344,
ALWYN GARDENS SPORTS GROUND,TRUE,TRUE,1 hour 9 mins,1 hour 2 mins,1 hour 10 mins,1 hour 4 mins,46 mins,66.25,70.00,69.00,62.00,70.00,64.00,46.00,6021701,51.518072,-0.273713,TRUE,TRUE,1,0,1,https://pitchfinder.org.uk/map/site/6021701,,,,,,,,,,345,
HOLMESDALE FOOTBALL CLUB,TRUE,TRUE,1 hour 9 mins,1 hour 15 mins,1 hour 16 mins,1 hour 13 mins,50 mins,73.25,70.00,69.00,75.00,76.00,73.00,50.00,1202564,51.374566,0.038092,TRUE,TRUE,1,0,1,https://pitchfinder.org.uk/map/site/1202564,,,,,,,,,,346,
MERIDIAN SPORTS AND SOCIAL CLUB LTD,TRUE,TRUE,1 hour 10 mins,1 hour 8 mins,1 hour 20 mins,1 hour 18 mins,43 mins,74.00,70.00,70.00,68.00,80.00,78.00,43.00,1103251,51.479013,0.046622,TRUE,TRUE,7,1,2,https://pitchfinder.org.uk/map/site/1103251,,,,,,,,,,347,
ST AUGUSTINE'S PRIORY,FALSE,TRUE,1 hour 12 mins,1 hour 6 mins,1 hour 15 mins,1 hour 7 mins,53 mins,70.00,70.00,72.00,66.00,75.00,67.00,53.00,1038229,51.523613,-0.293468,TRUE,TRUE,0,1,1,https://pitchfinder.org.uk/map/site/1038229,,,,,,,,,,348,
KINGSFORD COMMUNITY SCHOOL,FALSE,TRUE,1 hour 12 mins,1 hour 6 mins,1 hour 20 mins,1 hour 19 mins,47 mins,74.25,70.00,72.00,66.00,80.00,79.00,47.00,1008334,51.514386,0.055371,TRUE,TRUE,0,1,1,https://pitchfinder.org.uk/map/site/1008334,,,,,,,,,,349,
RAVENS WOOD SCHOOL,FALSE,TRUE,1 hour 14 mins,1 hour 11 mins,1 hour 11 mins,1 hour 18 mins,40 mins,73.50,70.00,74.00,71.00,71.00,78.00,40.00,1002373,51.369442,0.035642,TRUE,FALSE,1,1,1,https://pitchfinder.org.uk/map/site/1002373,,,,,,,,,,350,
MABLEY GREEN,TRUE,TRUE,1 hour 15 mins,56 mins,1 hour 11 mins,1 hour 7 mins,51 mins,67.25,70.00,75.00,56.00,71.00,67.00,51.00,1035978,51.548934,-0.031575,TRUE,TRUE,6,2,2,https://pitchfinder.org.uk/map/site/1035978,,,,,,,,,,351,
FALCON PARK,TRUE,TRUE,43 mins,25 mins,45 mins,50 mins,53 mins,40.75,40.00,43.00,25.00,45.00,50.00,53.00,1069942,51.469981,-0.1659,FALSE,TRUE,0,1,1,https://pitchfinder.org.uk/map/site/1069942,,,,Y,,Too Small (Training option),"75x50m, 3G",Might be a good training option.,Jack,42,
ALPERTON SPORTS GROUND,FALSE,FALSE,1 hour 16 mins,1 hour 9 mins,1 hour 18 mins,1 hour 10 mins,54 mins,73.25,70.00,76.00,69.00,78.00,70.00,54.00,1040066,51.535175,-0.303244,FALSE,TRUE,2,0,1,https://pitchfinder.org.uk/map/site/1040066,,,,,,,,,,352,
NEWHAM LEISURE CENTRE,TRUE,TRUE,1 hour 17 mins,1 hour 0 mins,1 hour 11 mins,1 hour 11 mins,43 mins,69.75,70.00,77.00,60.00,71.00,71.00,43.00,1002353,51.518686,0.036178,TRUE,TRUE,1,3,4,https://pitchfinder.org.uk/map/site/1002353,,,,,,,,,,353,
MONKS HILL SPORTS CENTRE,FALSE,TRUE,1 hour 17 mins,1 hour 4 mins,53 mins,1 hour 6 mins,52 mins,65.00,70.00,77.00,64.00,53.00,66.00,52.00,30003761,51.351316,-0.04965,TRUE,TRUE,1,3,3,https://pitchfinder.org.uk/map/site/30003761,,,,,,,,,,354,
HAYES SCHOOL,FALSE,TRUE,1 hour 21 mins,1 hour 9 mins,1 hour 10 mins,1 hour 7 mins,55 mins,71.75,70.00,81.00,69.00,70.00,67.00,55.00,1200937,51.373976,0.018931,TRUE,TRUE,3,1,1,https://pitchfinder.org.uk/map/site/1200937,,,,,,,,,,355,
ROUNDSHAW PARK,FALSE,FALSE,1 hour 7 mins,1 hour 13 mins,54 mins,1 hour 6 mins,51 mins,65.00,70.00,67.00,73.00,54.00,66.00,51.00,6002161,51.352249,-0.134902,FALSE,TRUE,2,0,0,https://pitchfinder.org.uk/map/site/6002161,,,,,,,,,,356,
THE LIFE CENTRE,FALSE,TRUE,1 hour 11 mins,1 hour 2 mins,1 hour 5 mins,1 hour 2 mins,51 mins,65.00,70.00,71.00,62.00,65.00,62.00,51.00,1201189,51.38666,0.034796,TRUE,FALSE,0,0,0,https://pitchfinder.org.uk/map/site/1201189,,,,,,,,,,357,
COMMONS EXTENSION PITCHES 1-9,FALSE,TRUE,56 mins,1 hour 2 mins,1 hour 9 mins,1 hour 13 mins,1 hour 16 mins,65.00,70.00,56.00,62.00,69.00,73.00,76.00,1042306,51.426723,-0.25456,TRUE,TRUE,18,0,0,https://pitchfinder.org.uk/map/site/1042306,,,,,,,,,,358,
BOSTON MANOR PLAYING FIELD,FALSE,TRUE,1 hour 5 mins,59 mins,1 hour 12 mins,1 hour 4 mins,50 mins,65.00,70.00,65.00,59.00,72.00,64.00,50.00,1042100,51.493106,-0.323927,TRUE,TRUE,6,0,0,https://pitchfinder.org.uk/map/site/1042100,,,,,,,,,,359,
SOUTHFIELD ROAD PLAYING FIELD,FALSE,TRUE,1 hour 4 mins,59 mins,1 hour 10 mins,1 hour 8 mins,55 mins,65.25,70.00,64.00,59.00,70.00,68.00,55.00,6006670,51.503721,-0.262342,FALSE,TRUE,2,0,0,https://pitchfinder.org.uk/map/site/6006670,,,,,,,,,,360,
SUTTON GRAMMAR SCHOOL SPORTS GROUND,FALSE,TRUE,1 hour 6 mins,52 mins,1 hour 3 mins,1 hour 20 mins,1 hour 17 mins,65.25,70.00,66.00,52.00,63.00,80.00,77.00,6007100,51.345184,-0.218545,TRUE,FALSE,7,0,0,https://pitchfinder.org.uk/map/site/6007100,,,,,,,,,,361,
JOHN ORWELL SPORTS CENTRE,FALSE,TRUE,47 mins,42 mins,45 mins,53 mins,23 mins,46.75,50.00,47.00,42.00,45.00,53.00,23.00,1002306,51.504849,-0.061632,TRUE,TRUE,0,1,1,https://pitchfinder.org.uk/map/site/1002306,,,,Y,,Enquiring,Full size 3G,Emailed 28/07,Ridings V2,99,
WARING PARK,FALSE,TRUE,1 hour 6 mins,55 mins,1 hour 8 mins,1 hour 12 mins,47 mins,65.25,70.00,66.00,55.00,68.00,72.00,47.00,6009204,51.43136,0.110262,TRUE,TRUE,1,0,0,https://pitchfinder.org.uk/map/site/6009204,,,,,,,,,,362,
WEIGALL ROAD PLAYING FIELDS,FALSE,TRUE,58 mins,52 mins,1 hour 14 mins,1 hour 18 mins,34 mins,65.50,70.00,58.00,52.00,74.00,78.00,34.00,6001733,51.456977,0.017015,TRUE,TRUE,4,0,0,https://pitchfinder.org.uk/map/site/6001733,,,,,,,,,,363,
HACKNEY MARSHES CENTRE,TRUE,TRUE,1 hour 2 mins,54 mins,1 hour 20 mins,1 hour 7 mins,52 mins,65.75,70.00,62.00,54.00,80.00,67.00,52.00,6011833,51.552941,-0.025543,TRUE,TRUE,73,0,0,https://pitchfinder.org.uk/map/site/6011833,,,,,,,,,,364,
CLITTERHOUSE PLAYING FIELDS,FALSE,FALSE,1 hour 5 mins,59 mins,1 hour 10 mins,1 hour 9 mins,46 mins,65.75,70.00,65.00,59.00,70.00,69.00,46.00,6007387,51.569017,-0.212427,FALSE,TRUE,4,0,0,https://pitchfinder.org.uk/map/site/6007387,,,,,,,,,,365,
LONGLANDS RECREATION GROUND,FALSE,TRUE,1 hour 7 mins,55 mins,1 hour 9 mins,1 hour 13 mins,48 mins,66.00,70.00,67.00,55.00,69.00,73.00,48.00,6009152,51.431014,0.092429,FALSE,TRUE,1,0,0,https://pitchfinder.org.uk/map/site/6009152,,,,,,,,,,366,
HANWELL FC (VUK CLUB),FALSE,TRUE,1 hour 6 mins,1 hour 1 min,1 hour 12 mins,1 hour 5 mins,50 mins,66.00,70.00,66.00,61.00,72.00,65.00,50.00,30006317,51.496536,-0.280337,TRUE,TRUE,4,0,0,https://pitchfinder.org.uk/map/site/30006317,,,,,,,,,,367,
ASHBURTON PLAYING FIELDS,TRUE,TRUE,1 hour 9 mins,1 hour 3 mins,1 hour 9 mins,1 hour 4 mins,38 mins,66.25,70.00,69.00,63.00,69.00,64.00,38.00,6015622,51.385257,-0.054445,FALSE,TRUE,6,0,0,https://pitchfinder.org.uk/map/site/6015622,,,,,,,,,,368,
THE JOHN FISHER SCHOOL SPORTS GROUND,FALSE,TRUE,1 hour 14 mins,1 hour 11 mins,54 mins,1 hour 6 mins,53 mins,66.25,70.00,74.00,71.00,54.00,66.00,53.00,1200453,51.347339,-0.126128,TRUE,FALSE,1,0,0,https://pitchfinder.org.uk/map/site/1200453,,,,,,,,,,369,
SHEEN COMMON,FALSE,TRUE,1 hour 19 mins,57 mins,1 hour 8 mins,1 hour 1 min,57 mins,66.25,70.00,79.00,57.00,68.00,61.00,57.00,1202539,51.457844,-0.275201,FALSE,FALSE,0,0,0,https://pitchfinder.org.uk/map/site/1202539,,,,,,,,,,370,
BECKTON DISTRICT PARK SOUTH,TRUE,TRUE,1 hour 5 mins,58 mins,1 hour 10 mins,1 hour 12 mins,42 mins,66.25,70.00,65.00,58.00,70.00,72.00,42.00,1202433,51.512036,0.048348,FALSE,TRUE,5,0,0,https://pitchfinder.org.uk/map/site/1202433,,,,,,,,,,371,
SHAMROCK SPORTS AND SOCIAL CLUB,FALSE,TRUE,1 hour 6 mins,1 hour 1 min,1 hour 14 mins,1 hour 4 mins,48 mins,66.25,70.00,66.00,61.00,74.00,64.00,48.00,6017686,51.518161,-0.269948,TRUE,TRUE,2,0,0,https://pitchfinder.org.uk/map/site/6017686,,,,,,,,,,372,
NESCOT SPORTS CENTRE,TRUE,TRUE,1 hour 5 mins,53 mins,1 hour 6 mins,1 hour 21 mins,1 hour 25 mins,66.25,70.00,65.00,53.00,66.00,81.00,85.00,1003199,51.342566,-0.244678,TRUE,TRUE,10,0,0,https://pitchfinder.org.uk/map/site/1003199,,,,,,,,,,373,
THE PAVILION SPORT AND LEISURE CLUB,TRUE,TRUE,1 hour 3 mins,53 mins,1 hour 8 mins,1 hour 22 mins,38 mins,66.50,70.00,63.00,53.00,68.00,82.00,38.00,30003517,51.445978,0.063581,TRUE,TRUE,2,0,0,https://pitchfinder.org.uk/map/site/30003517,,,,,,,,,,374,
GERMAN SCHOOL LONDON,FALSE,TRUE,1 hour 5 mins,1 hour 2 mins,1 hour 12 mins,1 hour 7 mins,1 hour 9 mins,66.50,70.00,65.00,62.00,72.00,67.00,69.00,1201694,51.444804,-0.306538,TRUE,TRUE,1,0,0,https://pitchfinder.org.uk/map/site/1201694,,,,,,,,,,375,
NORTHBROOK PARK,FALSE,FALSE,58 mins,59 mins,1 hour 11 mins,1 hour 19 mins,33 mins,66.75,70.00,58.00,59.00,71.00,79.00,33.00,1202057,51.441957,0.013216,FALSE,TRUE,1,0,0,https://pitchfinder.org.uk/map/site/1202057,,,,,,,,,,376,
PARKFIELDS,FALSE,FALSE,1 hour 10 mins,1 hour 4 mins,1 hour 3 mins,1 hour 10 mins,48 mins,66.75,70.00,70.00,64.00,63.00,70.00,48.00,1202794,51.378997,-0.038596,FALSE,TRUE,3,0,0,https://pitchfinder.org.uk/map/site/1202794,,,,,,,,,,377,
ROUNDSHAW PARK,TRUE,TRUE,1 hour 10 mins,1 hour 16 mins,54 mins,1 hour 7 mins,52 mins,66.75,70.00,70.00,76.00,54.00,67.00,52.00,6002148,51.353616,-0.123229,FALSE,TRUE,5,0,0,https://pitchfinder.org.uk/map/site/6002148,,,,,,,,,,378,
LONDON MARATHON SPORTS GROUND,FALSE,TRUE,1 hour 0 mins,54 mins,1 hour 15 mins,1 hour 19 mins,35 mins,67.00,70.00,60.00,54.00,75.00,79.00,35.00,6006432,51.436483,0.037225,TRUE,FALSE,4,0,0,https://pitchfinder.org.uk/map/site/6006432,,,,,,,,,,379,
NORMAN PARK RECREATION GROUND,TRUE,TRUE,1 hour 12 mins,1 hour 6 mins,1 hour 6 mins,1 hour 4 mins,52 mins,67.00,70.00,72.00,66.00,66.00,64.00,52.00,30007832,51.388319,0.026777,TRUE,TRUE,6,0,0,https://pitchfinder.org.uk/map/site/30007832,,,,,,,,,,380,
CUMNOR HOUSE SCHOOL SPORTS GROUND,FALSE,TRUE,1 hour 14 mins,1 hour 21 mins,50 mins,1 hour 3 mins,51 mins,67.00,70.00,74.00,81.00,50.00,63.00,51.00,30006360,51.346382,-0.112453,TRUE,FALSE,11,0,0,https://pitchfinder.org.uk/map/site/30006360,,,,,,,,,,381,
SWAMINARAYAN SPORTS WORLD,FALSE,TRUE,1 hour 4 mins,57 mins,1 hour 15 mins,1 hour 12 mins,47 mins,67.00,70.00,64.00,57.00,75.00,72.00,47.00,6014630,51.568705,0.024557,TRUE,TRUE,2,0,0,https://pitchfinder.org.uk/map/site/6014630,,,,,,,,,,382,
EX BLUES CLUB,FALSE,TRUE,1 hour 10 mins,1 hour 4 mins,1 hour 11 mins,1 hour 4 mins,44 mins,67.25,70.00,70.00,64.00,71.00,64.00,44.00,6010477,51.378258,-0.005091,TRUE,TRUE,2,0,0,https://pitchfinder.org.uk/map/site/6010477,,,,,,,,,,383,
ST PAULS SPORTS GROUND,TRUE,TRUE,50 mins,43 mins,1 hour 9 mins,1 hour 5 mins,20 mins,56.75,60.00,50.00,43.00,69.00,65.00,20.00,30004216,51.506232,-0.040104,TRUE,TRUE,0,1,1,https://pitchfinder.org.uk/map/site/30004216,,,,Y,,Enquiring,Full size 3G,Emailed 28/07,Ridings V2,181,
LEYTON JUBILEE PARK,FALSE,TRUE,1 hour 5 mins,55 mins,1 hour 17 mins,1 hour 12 mins,48 mins,67.25,70.00,65.00,55.00,77.00,72.00,48.00,1202176,51.563996,-0.02511,FALSE,TRUE,3,0,0,https://pitchfinder.org.uk/map/site/1202176,,,,,,,,,,384,
WANSTEAD FLATS (HARROW ROAD),TRUE,TRUE,1 hour 2 mins,56 mins,1 hour 19 mins,1 hour 12 mins,44 mins,67.25,70.00,62.00,56.00,79.00,72.00,44.00,6021252,51.560508,0.016369,TRUE,TRUE,12,0,0,https://pitchfinder.org.uk/map/site/6021252,,,,,,,,,,385,
WANSTEAD FLATS (ALDERSBROOK ROAD),FALSE,TRUE,1 hour 5 mins,58 mins,1 hour 12 mins,1 hour 14 mins,50 mins,67.25,70.00,65.00,58.00,72.00,74.00,50.00,6021080,51.560898,0.035846,TRUE,TRUE,13,0,0,https://pitchfinder.org.uk/map/site/6021080,,,,,,,,,,386,
PALEWELL COMMON,FALSE,TRUE,1 hour 14 mins,1 hour 9 mins,1 hour 7 mins,1 hour 0 mins,1 hour 11 mins,67.50,70.00,74.00,69.00,67.00,60.00,71.00,1202538,51.458477,-0.259777,FALSE,FALSE,0,0,0,https://pitchfinder.org.uk/map/site/1202538,,,,,,,,,,387,
BOSTON MANOR PARK,FALSE,TRUE,1 hour 7 mins,1 hour 5 mins,1 hour 7 mins,1 hour 11 mins,57 mins,67.50,70.00,67.00,65.00,67.00,71.00,57.00,30008537,51.489866,-0.318789,FALSE,TRUE,2,0,0,https://pitchfinder.org.uk/map/site/30008537,,,,,,,,,,388,
CHARLTON PARK,TRUE,TRUE,1 hour 5 mins,58 mins,1 hour 15 mins,1 hour 13 mins,39 mins,67.75,70.00,65.00,58.00,75.00,73.00,39.00,6001616,51.481501,0.044362,TRUE,TRUE,9,0,0,https://pitchfinder.org.uk/map/site/6001616,,,,,,,,,,389,
MILLFIELDS PARK,TRUE,FALSE,1 hour 14 mins,52 mins,1 hour 18 mins,1 hour 7 mins,42 mins,67.75,70.00,74.00,52.00,78.00,67.00,42.00,6011832,51.559518,-0.049153,FALSE,TRUE,1,0,0,https://pitchfinder.org.uk/map/site/6011832,,,,,,,,,,390,
SURBITON TOWN SPORTS CLUB,FALSE,TRUE,59 mins,1 hour 22 mins,1 hour 0 mins,1 hour 10 mins,1 hour 10 mins,67.75,70.00,59.00,82.00,60.00,70.00,70.00,1002401,51.3767,-0.268719,TRUE,TRUE,2,0,0,https://pitchfinder.org.uk/map/site/1002401,,,,,,,,,,391,
KING EDWARD VII RECREATION GROUND,FALSE,FALSE,1 hour 6 mins,1 hour 4 mins,1 hour 11 mins,1 hour 11 mins,56 mins,68.00,70.00,66.00,64.00,71.00,71.00,56.00,1042290,51.538626,-0.230716,TRUE,TRUE,2,0,0,https://pitchfinder.org.uk/map/site/1042290,,,,,,,,,,392,
WANSTEAD FLATS (CAPEL ROAD),FALSE,TRUE,1 hour 5 mins,1 hour 1 min,1 hour 13 mins,1 hour 13 mins,44 mins,68.00,70.00,65.00,61.00,73.00,73.00,44.00,20001045,51.555475,0.03233,TRUE,TRUE,17,0,0,https://pitchfinder.org.uk/map/site/20001045,,,,,,,,,,393,
SAVAGE GARDENS,TRUE,FALSE,1 hour 7 mins,59 mins,1 hour 13 mins,1 hour 14 mins,42 mins,68.25,70.00,67.00,59.00,73.00,74.00,42.00,1202843,51.510507,0.057672,FALSE,TRUE,5,0,0,https://pitchfinder.org.uk/map/site/1202843,,,,,,,,,,394,
HARRIER CENTRE,FALSE,TRUE,53 mins,1 hour 18 mins,1 hour 14 mins,1 hour 8 mins,1 hour 5 mins,68.25,70.00,53.00,78.00,74.00,68.00,65.00,1011505,51.358266,-0.265106,TRUE,TRUE,2,0,0,https://pitchfinder.org.uk/map/site/1011505,,,,,,,,,,395,
WORMWOOD SCRUBS PARK,FALSE,FALSE,1 hour 10 mins,1 hour 3 mins,1 hour 13 mins,1 hour 8 mins,49 mins,68.50,70.00,70.00,63.00,73.00,68.00,49.00,6003225,51.521637,-0.234068,TRUE,TRUE,18,0,0,https://pitchfinder.org.uk/map/site/6003225,,,,,,,,,,396,
GREY COURT SCHOOL,TRUE,TRUE,1 hour 8 mins,1 hour 11 mins,1 hour 1 min,1 hour 14 mins,1 hour 12 mins,68.50,70.00,68.00,71.00,61.00,74.00,72.00,1007944,51.438066,-0.311924,TRUE,TRUE,5,0,0,https://pitchfinder.org.uk/map/site/1007944,,,,,,,,,,397,
NORTH ACTON PLAYING FIELD,FALSE,TRUE,1 hour 10 mins,1 hour 6 mins,1 hour 13 mins,1 hour 5 mins,48 mins,68.50,70.00,70.00,66.00,73.00,65.00,48.00,6006507,51.52082,-0.271339,FALSE,TRUE,4,0,0,https://pitchfinder.org.uk/map/site/6006507,,,,,,,,,,398,
THE LANGLEY ANNEXE,TRUE,TRUE,1 hour 14 mins,1 hour 7 mins,1 hour 10 mins,1 hour 4 mins,48 mins,68.75,70.00,74.00,67.00,70.00,64.00,48.00,6006466,51.390873,-0.013673,TRUE,TRUE,5,0,0,https://pitchfinder.org.uk/map/site/6006466,,,,,,,,,,399,
ELTHAM COLLEGE,FALSE,TRUE,1 hour 0 mins,54 mins,1 hour 15 mins,1 hour 26 mins,35 mins,68.75,70.00,60.00,54.00,75.00,86.00,35.00,1201169,51.437969,0.038644,TRUE,TRUE,4,0,0,https://pitchfinder.org.uk/map/site/1201169,,,,,,,,,,400,
HERVEY ROAD PLAYING FIELDS,FALSE,TRUE,1 hour 0 mins,1 hour 5 mins,1 hour 15 mins,1 hour 15 mins,35 mins,68.75,70.00,60.00,65.00,75.00,75.00,35.00,30008672,51.472268,0.029569,TRUE,TRUE,6,0,0,https://pitchfinder.org.uk/map/site/30008672,,,,,,,,,,401,
MOTTINGHAM SPORTS GROUND,TRUE,TRUE,1 hour 3 mins,58 mins,1 hour 12 mins,1 hour 22 mins,38 mins,68.75,70.00,63.00,58.00,72.00,82.00,38.00,30007830,51.433562,0.039421,TRUE,TRUE,10,0,0,https://pitchfinder.org.uk/map/site/30007830,,,,,,,,,,402,
CONEY HALL FOOTBALL CLUB,TRUE,TRUE,1 hour 14 mins,1 hour 6 mins,1 hour 11 mins,1 hour 4 mins,47 mins,68.75,70.00,74.00,66.00,71.00,64.00,47.00,6006430,51.376264,0.003258,TRUE,TRUE,4,0,0,https://pitchfinder.org.uk/map/site/6006430,,,,,,,,,,403,
ROYAL ARTILLERY BARRACKS,FALSE,TRUE,1 hour 10 mins,58 mins,1 hour 10 mins,1 hour 17 mins,39 mins,68.75,70.00,70.00,58.00,70.00,77.00,39.00,6006954,51.484286,0.059979,TRUE,FALSE,9,0,0,https://pitchfinder.org.uk/map/site/6006954,,,,,,,,,,404,
WHITEFOOT PLAYING FIELD,TRUE,TRUE,1 hour 13 mins,1 hour 0 mins,1 hour 10 mins,1 hour 14 mins,47 mins,69.25,70.00,73.00,60.00,70.00,74.00,47.00,1202002,51.43094,0.001415,TRUE,TRUE,3,0,0,https://pitchfinder.org.uk/map/site/1202002,,,,,,,,,,405,
